~VERSION INFORMATION                                    
VERS.   2.0        : LAS LOG ASCII STANDARD VERSION 2.0 
WRAP.   NO         : ONE LINE PER DEPTH STEP            
~WELL INFORMATION                                       
STRT.M   208.0000                     :                 
STOP.M   1569.1250                    :                 
STEP.M   0.1250                       :                 
NULL.    -999.25                      :                 
WELL.    Alberta Well     : Well Name       
OPER.                                 : Operator        
FLD .                                 : Field           
DATE.                                 : Date Logged     
SRVC.                                 : Service Company 
UWI .                                 : UNIQUE WELL ID  
LSD .                                 : LSD             
SEC .                                 : Section         
TWP .                                 : Township        
RGE .                                 : Range           
MER .                                 : Meridian        
LOC .                                 : Location Descrip
~PARAMETER                                              
EKB.M   977.400    : ELEVATION KB                       
EGL.M   973.3000   : GL Elevation                       
TLI.M   208.0000   : Log Run Top                        
BLI.M   1586.0000  : Log Run Base                       
~CURVE                                                  
DEPT   .M                   : 1 DEPTH                   
DTP    .usec/m              : 2 DTP                     
RHOB   .kg/m3               : 3 RHOB                    
GR     .API      UNITS      : 4 GR                      
DTS    .usec/m              : 5 DTS                     
POISSON.NO       UNITS      : 6 POISSON                 
~TOPS                                                   
#TOPS NAME          .        DEPTH:                     
BellyRiver          .    516    :                       
BasalBellyRiver     .    753    :                       
LeaPark             .    768    :                       
Colorado            .    892    :                       
MedicineHat         .    1032   :                       
BaseFishScales      .    1273   :                       
Viking              .    1307   :                       
Joli Fou            .    1372   :                       
Mannville           .    1402   :                       
MedicineRiverCoal   .    1469   :                       
Glauconitic         .    1499   :                       
TopPorosity         .    1502.5 :                       
Ostracod            .    1514.5 :                       
Ellerslie           .    1540   :                       
Pekisko             .    1554   :                       
TD                  .    1572   :                       
~A                                                      
# ...
1.0172500e+03   2.9835900e+02   2.5281311e+03   1.0501800e+02   6.0694800e+02   3.4100000e-01   
1.0173750e+03   2.9784100e+02   2.5310500e+03   1.0607900e+02   6.0694800e+02   3.4100000e-01   
1.0175000e+03   2.9743100e+02   2.5305620e+03   1.0807800e+02   6.0694800e+02   3.4200000e-01   
1.0176250e+03   2.9762400e+02   2.5282051e+03   1.0999600e+02   6.0694800e+02   3.4200000e-01   
1.0177500e+03   2.9833600e+02   2.5238979e+03   1.1073100e+02   6.0694800e+02   3.4100000e-01   
1.0178750e+03   2.9945800e+02   2.5190190e+03   1.1111500e+02   6.0848300e+02   3.4000000e-01   
1.0180000e+03   3.0099000e+02   2.5158521e+03   1.1176000e+02   6.1165900e+02   3.4000000e-01   
1.0181250e+03   3.0293300e+02   2.5148689e+03   1.1283700e+02   6.1494000e+02   3.4000000e-01   
1.0182500e+03   3.0498300e+02   2.5165969e+03   1.1390500e+02   6.1975600e+02   3.4000000e-01   
1.0183750e+03   3.0673200e+02   2.5197629e+03   1.1393100e+02   6.2621200e+02   3.4200000e-01   
1.0185000e+03   3.0807000e+02   2.5196350e+03   1.1290600e+02   6.3277400e+02   3.4500000e-01   
1.0186250e+03   3.0899900e+02   2.5132271e+03   1.1120600e+02   6.3780000e+02   3.4700000e-01   
1.0187500e+03   3.0951700e+02   2.5026721e+03   1.0996600e+02   6.4272100e+02   3.4900000e-01   
1.0188750e+03   3.0962600e+02   2.4935950e+03   1.0970300e+02   6.4764300e+02   3.5200000e-01   
1.0190000e+03   3.0962600e+02   2.4895879e+03   1.1062500e+02   6.5102900e+02   3.5400000e-01   
1.0191250e+03   3.0932400e+02   2.4925359e+03   1.1256800e+02   6.5277400e+02   3.5500000e-01   
1.0192500e+03   3.0891400e+02   2.4988569e+03   1.1461200e+02   6.5441500e+02   3.5700000e-01   
1.0193750e+03   3.0850300e+02   2.5039380e+03   1.1589000e+02   6.5605500e+02   3.5800000e-01   
1.0195000e+03   3.0809300e+02   2.5064241e+03   1.1664600e+02   6.5616000e+02   3.5900000e-01   
1.0196250e+03   3.0768300e+02   2.5073960e+03   1.1640500e+02   6.5462500e+02   3.5800000e-01   
1.0197500e+03   3.0757500e+02   2.5068081e+03   1.1547100e+02   6.5298400e+02   3.5700000e-01   
1.0198750e+03   3.0727300e+02   2.5033840e+03   1.1404600e+02   6.5134400e+02   3.5700000e-01   
1.0200000e+03   3.0716500e+02   2.4987439e+03   1.1211700e+02   6.4970300e+02   3.5600000e-01   
1.0201250e+03   3.0746700e+02   2.4964431e+03   1.1013000e+02   6.4959800e+02   3.5600000e-01   
1.0202500e+03   3.0787700e+02   2.4998269e+03   1.0862600e+02   6.5113400e+02   3.5600000e-01   
1.0203750e+03   3.0828700e+02   2.5056411e+03   1.0797300e+02   6.5277400e+02   3.5600000e-01   
1.0205000e+03   3.0869700e+02   2.5098301e+03   1.0858700e+02   6.5441500e+02   3.5700000e-01   
1.0206250e+03   3.0880500e+02   2.5081709e+03   1.0970800e+02   6.5605500e+02   3.5800000e-01   
1.0207500e+03   3.0850300e+02   2.5021721e+03   1.1127000e+02   6.5616000e+02   3.5800000e-01   
1.0208750e+03   3.0779200e+02   2.4964280e+03   1.1265100e+02   6.5462500e+02   3.5800000e-01   
1.0210000e+03   3.0697100e+02   2.4932490e+03   1.1381800e+02   6.5298400e+02   3.5800000e-01   
1.0211250e+03   3.0645300e+02   2.4911680e+03   1.1458800e+02   6.4980900e+02   3.5700000e-01   
1.0212500e+03   3.0604300e+02   2.4890149e+03   1.1500000e+02   6.4652800e+02   3.5600000e-01   
1.0213750e+03   3.0623600e+02   2.4873701e+03   1.1494800e+02   6.4324700e+02   3.5300000e-01   
1.0215000e+03   3.0725000e+02   2.4877839e+03   1.1525400e+02   6.4150200e+02   3.5100000e-01   
1.0216250e+03   3.0817900e+02   2.4909641e+03   1.1481300e+02   6.3986100e+02   3.4900000e-01   
1.0217500e+03   3.0930100e+02   2.4956580e+03   1.1338400e+02   6.3975600e+02   3.4700000e-01   
1.0218750e+03   3.1053100e+02   2.4991289e+03   1.1234300e+02   6.3975600e+02   3.4600000e-01   
1.0220000e+03   3.1085600e+02   2.5000449e+03   1.1223600e+02   6.3975600e+02   3.4500000e-01   
1.0221250e+03   3.1025200e+02   2.4990049e+03   1.1226200e+02   6.3975600e+02   3.4600000e-01   
1.0222500e+03   3.0943200e+02   2.4976990e+03   1.1218700e+02   6.3822100e+02   3.4600000e-01   
1.0223750e+03   3.0800800e+02   2.4967080e+03   1.1101300e+02   6.3504500e+02   3.4600000e-01   
1.0225000e+03   3.0606600e+02   2.4969080e+03   1.0825100e+02   6.3176400e+02   3.4700000e-01   
1.0226250e+03   3.0401500e+02   2.4985259e+03   1.0586100e+02   6.2694800e+02   3.4600000e-01   
1.0227500e+03   3.0196500e+02   2.5021379e+03   1.0409700e+02   6.2356200e+02   3.4700000e-01   
1.0228750e+03   2.9991400e+02   2.5079910e+03   1.0294600e+02   6.2181700e+02   3.4800000e-01   
1.0230000e+03   2.9816600e+02   2.5139041e+03   1.0377600e+02   6.2171200e+02   3.5100000e-01   
1.0231250e+03   2.9773300e+02   2.5174441e+03   1.0642600e+02   6.2324700e+02   3.5200000e-01   
1.0232500e+03   2.9833600e+02   2.5180359e+03   1.0939700e+02   6.2642300e+02   3.5300000e-01   
1.0233750e+03   3.0006200e+02   2.5142520e+03   1.1192800e+02   6.2970300e+02   3.5300000e-01   
1.0235000e+03   3.0241400e+02   2.5044121e+03   1.1390900e+02   6.3451900e+02   3.5300000e-01   
1.0236250e+03   3.0517700e+02   2.4896931e+03   1.1574000e+02   6.3944100e+02   3.5300000e-01   
1.0237500e+03   3.0744400e+02   2.4735559e+03   1.1749500e+02   6.4282700e+02   3.5200000e-01   
1.0238750e+03   3.0949400e+02   2.4638159e+03   1.1835100e+02   6.4457200e+02   3.5000000e-01   
1.0240000e+03   3.1033700e+02   2.4640259e+03   1.1839400e+02   6.4314200e+02   3.4800000e-01   
1.0241250e+03   3.0954000e+02   2.4705049e+03   1.1744600e+02   6.3843100e+02   3.4600000e-01   
1.0242500e+03   3.0710300e+02   2.4753059e+03   1.1469800e+02   6.3043900e+02   3.4400000e-01   
1.0243750e+03   3.0362800e+02   2.4797361e+03   1.0921600e+02   6.2070200e+02   3.4300000e-01   
1.0245000e+03   2.9963600e+02   2.4900610e+03   1.0026200e+02   6.1239500e+02   3.4300000e-01   
1.0246250e+03   2.9613800e+02   2.5086841e+03   9.0283000e+01   6.0572800e+02   3.4300000e-01   
1.0247500e+03   2.9406500e+02   2.5296790e+03   8.4664000e+01   6.0223700e+02   3.4300000e-01   
1.0248750e+03   2.9363200e+02   2.5395730e+03   8.5879000e+01   6.0356200e+02   3.4500000e-01   
1.0250000e+03   2.9574400e+02   2.5323450e+03   9.1755000e+01   6.0827300e+02   3.4500000e-01   
1.0251250e+03   2.9861500e+02   2.5170400e+03   9.8359000e+01   6.1472900e+02   3.4600000e-01   
1.0252500e+03   3.0148600e+02   2.5060100e+03   1.0196900e+02   6.2282600e+02   3.4700000e-01   
1.0253750e+03   3.0435600e+02   2.5028999e+03   1.0278600e+02   6.3102800e+02   3.4800000e-01   
1.0255000e+03   3.0662400e+02   2.5067771e+03   1.0310500e+02   6.3769500e+02   3.5000000e-01   
1.0256250e+03   3.0686300e+02   2.5103330e+03   1.0409500e+02   6.4272100e+02   3.5200000e-01   
1.0257500e+03   3.0645300e+02   2.5107859e+03   1.0514100e+02   6.4457200e+02   3.5400000e-01   
1.0258750e+03   3.0604300e+02   2.5092310e+03   1.0578700e+02   6.4467700e+02   3.5500000e-01   
1.0260000e+03   3.0563300e+02   2.5065320e+03   1.0556800e+02   6.4467700e+02   3.5500000e-01   
1.0261250e+03   3.0582600e+02   2.5041240e+03   1.0584300e+02   6.4467700e+02   3.5500000e-01   
1.0262500e+03   3.0623600e+02   2.5019570e+03   1.0645700e+02   6.4621300e+02   3.5500000e-01   
1.0263750e+03   3.0725000e+02   2.4973330e+03   1.0694300e+02   6.5092300e+02   3.5700000e-01   
1.0265000e+03   3.0938600e+02   2.4914351e+03   1.0661800e+02   6.5738000e+02   3.5800000e-01   
1.0266250e+03   3.1214800e+02   2.4870200e+03   1.0623400e+02   6.6547700e+02   3.5900000e-01   
1.0267500e+03   3.1501900e+02   2.4846650e+03   1.0658400e+02   6.7521400e+02   3.6100000e-01   
1.0268750e+03   3.1789000e+02   2.4810610e+03   1.0887800e+02   6.8505600e+02   3.6300000e-01   
1.0270000e+03   3.2015700e+02   2.4711130e+03   1.1219700e+02   6.9336400e+02   3.6500000e-01   
1.0271250e+03   3.2069800e+02   2.4546421e+03   1.1500600e+02   7.0003000e+02   3.6700000e-01   
1.0272500e+03   3.2039600e+02   2.4392041e+03   1.1600300e+02   7.0198600e+02   3.6800000e-01   
1.0273750e+03   3.1938300e+02   2.4340520e+03   1.1419000e+02   7.0055600e+02   3.6900000e-01   
1.0275000e+03   3.1785100e+02   2.4436101e+03   1.1003600e+02   6.9584500e+02   3.6800000e-01   
