~VERSION INFORMATION                                    
VERS.   2.0        : LAS LOG ASCII STANDARD VERSION 2.0 
WRAP.   NO         : ONE LINE PER DEPTH STEP            
~WELL INFORMATION                                       
STRT.M   208.0000                     :                 
STOP.M   1569.1250                    :                 
STEP.M   0.1250                       :                 
NULL.    -999.25                      :                 
WELL.    Alberta Well     : Well Name       
OPER.                                 : Operator        
FLD .                                 : Field           
DATE.                                 : Date Logged     
SRVC.                                 : Service Company 
UWI .                                 : UNIQUE WELL ID  
LSD .                                 : LSD             
SEC .                                 : Section         
TWP .                                 : Township        
RGE .                                 : Range           
MER .                                 : Meridian        
LOC .                                 : Location Descrip
~PARAMETER                                              
EKB.M   977.400    : ELEVATION KB                       
EGL.M   973.3000   : GL Elevation                       
TLI.M   208.0000   : Log Run Top                        
BLI.M   1586.0000  : Log Run Base                       
~CURVE                                                  
DEPT   .M                   : 1 DEPTH                   
DTP    .usec/m              : 2 DTP                     
RHOB   .kg/m3               : 3 RHOB                    
GR     .API      UNITS      : 4 GR                      
DTS    .usec/m              : 5 DTS                     
POISSON.NO       UNITS      : 6 POISSON                 
~TOPS                                                   
#TOPS NAME          .        DEPTH:                     
BellyRiver          .    516    :                       
BasalBellyRiver     .    753    :                       
LeaPark             .    768    :                       
Colorado            .    892    :                       
MedicineHat         .    1032   :                       
BaseFishScales      .    1273   :                       
Viking              .    1307   :                       
Joli Fou            .    1372   :                       
Mannville           .    1402   :                       
MedicineRiverCoal   .    1469   :                       
Glauconitic         .    1499   :                       
TopPorosity         .    1502.5 :                       
Ostracod            .    1514.5 :                       
Ellerslie           .    1540   :                       
Pekisko             .    1554   :                       
TD                  .    1572   :                       
~A                                                      
# ...
1.1106250e+03   2.9127900e+02   2.5162759e+03   1.0866500e+02   6.0017600e+02   3.4600000e-01   
1.1107500e+03   2.9117100e+02   2.5115459e+03   1.0923600e+02   6.0038600e+02   3.4600000e-01   
1.1108750e+03   2.9117100e+02   2.5090811e+03   1.0840000e+02   6.0038600e+02   3.4600000e-01   
1.1110000e+03   2.9086900e+02   2.5090100e+03   1.0739200e+02   6.0038600e+02   3.4700000e-01   
1.1111250e+03   2.8955400e+02   2.5068430e+03   1.0614300e+02   5.9885100e+02   3.4700000e-01   
1.1112500e+03   2.8731000e+02   2.5021589e+03   1.0459000e+02   5.9567500e+02   3.4800000e-01   
1.1113750e+03   2.8454700e+02   2.4988669e+03   1.0238000e+02   5.9239500e+02   3.5000000e-01   
1.1115000e+03   2.8137500e+02   2.4997830e+03   1.0065000e+02   5.8757900e+02   3.5100000e-01   
1.1116250e+03   2.7869700e+02   2.5042419e+03   1.0039300e+02   5.8112200e+02   3.5100000e-01   
1.1117500e+03   2.7804800e+02   2.5084089e+03   1.0243300e+02   5.7763100e+02   3.4900000e-01   
1.1118750e+03   2.8016100e+02   2.5087019e+03   1.0429000e+02   5.7588500e+02   3.4500000e-01   
1.1120000e+03   2.8303100e+02   2.5067271e+03   1.0576700e+02   5.7578000e+02   3.4100000e-01   
1.1121250e+03   2.8560000e+02   2.5044790e+03   1.0598100e+02   5.7731600e+02   3.3800000e-01   
1.1122500e+03   2.8715500e+02   2.5025959e+03   1.0646500e+02   5.8202700e+02   3.3900000e-01   
1.1123750e+03   2.8717800e+02   2.5011101e+03   1.0708200e+02   5.8541300e+02   3.4200000e-01   
1.1125000e+03   2.8465500e+02   2.5016040e+03   1.0747800e+02   5.8715800e+02   3.4600000e-01   
1.1126250e+03   2.8137500e+02   2.5046709e+03   1.0681600e+02   5.8879900e+02   3.5200000e-01   
1.1127500e+03   2.7869700e+02   2.5106621e+03   1.0591000e+02   5.9043900e+02   3.5700000e-01   
1.1128750e+03   2.7653900e+02   2.5157500e+03   1.0505000e+02   5.9054400e+02   3.6000000e-01   
1.1130000e+03   2.7479000e+02   2.5189751e+03   1.0516600e+02   5.9054400e+02   3.6200000e-01   
1.1131250e+03   2.7405500e+02   2.5207290e+03   1.0543700e+02   5.8900900e+02   3.6200000e-01   
1.1132500e+03   2.7455000e+02   2.5223560e+03   1.0551300e+02   5.8890400e+02   3.6100000e-01   
1.1133750e+03   2.7537100e+02   2.5211951e+03   1.0625300e+02   5.8736800e+02   3.5900000e-01   
1.1135000e+03   2.7679400e+02   2.5181230e+03   1.0741800e+02   5.8572800e+02   3.5600000e-01   
1.1136250e+03   2.7903900e+02   2.5143369e+03   1.0903800e+02   5.8408800e+02   3.5200000e-01   
1.1137500e+03   2.8180100e+02   2.5125640e+03   1.1116200e+02   5.8398200e+02   3.4800000e-01   
1.1138750e+03   2.8467200e+02   2.5136721e+03   1.1234600e+02   5.8244700e+02   3.4300000e-01   
1.1140000e+03   2.8784400e+02   2.5163560e+03   1.1267200e+02   5.8234200e+02   3.3800000e-01   
1.1141250e+03   2.9082300e+02   2.5183159e+03   1.1200200e+02   5.8080700e+02   3.3300000e-01   
1.1142500e+03   2.9278800e+02   2.5198760e+03   1.1067900e+02   5.7916600e+02   3.2800000e-01   
1.1143750e+03   2.9322100e+02   2.5219871e+03   1.0938900e+02   5.7752600e+02   3.2600000e-01   
1.1145000e+03   2.9141100e+02   2.5242971e+03   1.0914900e+02   5.7435000e+02   3.2700000e-01   
1.1146250e+03   2.8804500e+02   2.5260061e+03   1.0992400e+02   5.7106900e+02   3.2900000e-01   
1.1147500e+03   2.8405200e+02   2.5265640e+03   1.1131600e+02   5.6932400e+02   3.3400000e-01   
1.1148750e+03   2.8025300e+02   2.5269280e+03   1.1287500e+02   5.6768300e+02   3.3900000e-01   
1.1150000e+03   2.7716500e+02   2.5260291e+03   1.1379800e+02   5.6604300e+02   3.4200000e-01   
1.1151250e+03   2.7520000e+02   2.5209819e+03   1.1409700e+02   5.6593800e+02   3.4500000e-01   
1.1152500e+03   2.7356000e+02   2.5111111e+03   1.1405000e+02   5.6593800e+02   3.4800000e-01   
1.1153750e+03   2.7191900e+02   2.5016841e+03   1.1416700e+02   5.6440300e+02   3.4900000e-01   
1.1155000e+03   2.7027900e+02   2.4986641e+03   1.1437700e+02   5.6276200e+02   3.5000000e-01   
1.1156250e+03   2.6833700e+02   2.5040081e+03   1.1431600e+02   5.5958700e+02   3.5100000e-01   
1.1157500e+03   2.6628600e+02   2.5141631e+03   1.1299000e+02   5.5477100e+02   3.5000000e-01   
1.1158750e+03   2.6483900e+02   2.5230630e+03   1.1104500e+02   5.4831400e+02   3.4800000e-01   
1.1160000e+03   2.6421300e+02   2.5273799e+03   1.0932200e+02   5.4175300e+02   3.4400000e-01   
1.1161250e+03   2.6410400e+02   2.5301721e+03   1.0787700e+02   5.3519100e+02   3.3900000e-01   
1.1162500e+03   2.6470800e+02   2.5320010e+03   1.0782600e+02   5.3016500e+02   3.3400000e-01   
1.1163750e+03   2.6613200e+02   2.5338940e+03   1.0776500e+02   5.2677900e+02   3.2900000e-01   
1.1165000e+03   2.6777200e+02   2.5352810e+03   1.0729900e+02   5.2349800e+02   3.2300000e-01   
1.1166250e+03   2.6880900e+02   2.5363860e+03   1.0677800e+02   5.2175200e+02   3.1900000e-01   
1.1167500e+03   2.6872400e+02   2.5377500e+03   1.0612700e+02   5.2011200e+02   3.1800000e-01   
1.1168750e+03   2.6740800e+02   2.5415859e+03   1.0501000e+02   5.1693600e+02   3.1700000e-01   
1.1170000e+03   2.6456100e+02   2.5654009e+03   1.0297600e+02   5.1365500e+02   3.1900000e-01   
1.1171250e+03   2.6097800e+02   2.6266470e+03   9.7883000e+01   5.1191000e+02   3.2400000e-01   
1.1172500e+03   2.5789100e+02   2.7299619e+03   9.1960000e+01   5.1180500e+02   3.3000000e-01   
1.1173750e+03   2.5562400e+02   2.8464900e+03   8.8607000e+01   5.1334000e+02   3.3500000e-01   
1.1175000e+03   2.5478000e+02   2.8845669e+03   8.9672000e+01   5.1651600e+02   3.3900000e-01   
1.1176250e+03   2.5678500e+02   2.7916470e+03   9.4928000e+01   5.2133200e+02   3.4000000e-01   
1.1177500e+03   2.6025900e+02   2.6709971e+03   1.0096900e+02   5.2625300e+02   3.3800000e-01   
1.1178750e+03   2.6395000e+02   2.5915549e+03   1.0383400e+02   5.2963900e+02   3.3500000e-01   
1.1180000e+03   2.6794300e+02   2.5604280e+03   1.0343300e+02   5.3292000e+02   3.3100000e-01   
1.1181250e+03   2.7144000e+02   2.5581870e+03   1.0305900e+02   5.3773600e+02   3.2900000e-01   
1.1182500e+03   2.7321200e+02   2.5581089e+03   1.0381200e+02   5.4265700e+02   3.3000000e-01   
1.1183750e+03   2.7474400e+02   2.5511709e+03   1.0737100e+02   5.4757800e+02   3.3200000e-01   
1.1185000e+03   2.7608300e+02   2.5407571e+03   1.1195700e+02   5.5249900e+02   3.3400000e-01   
1.1186250e+03   2.7761500e+02   2.5306531e+03   1.1621400e+02   5.5742100e+02   3.3500000e-01   
1.1187500e+03   2.7925500e+02   2.5229399e+03   1.1735300e+02   5.6080700e+02   3.3500000e-01   
1.1188750e+03   2.8089500e+02   2.5157610e+03   1.1606800e+02   5.6408700e+02   3.3500000e-01   
1.1190000e+03   2.8193200e+02   2.5071770e+03   1.1329500e+02   5.6736800e+02   3.3600000e-01   
1.1191250e+03   2.8245100e+02   2.4981550e+03   1.1099700e+02   5.7218400e+02   3.3900000e-01   
1.1192500e+03   2.8225700e+02   2.4926721e+03   1.1102800e+02   5.7557000e+02   3.4200000e-01   
1.1193750e+03   2.8184700e+02   2.4918650e+03   1.1289600e+02   5.7885100e+02   3.4500000e-01   
1.1195000e+03   2.8143700e+02   2.4955420e+03   1.1604400e+02   5.8213200e+02   3.4700000e-01   
1.1196250e+03   2.8102700e+02   2.5011631e+03   1.1809700e+02   5.8387700e+02   3.4900000e-01   
1.1197500e+03   2.8091900e+02   2.5058999e+03   1.1944500e+02   5.8398200e+02   3.4900000e-01   
1.1198750e+03   2.8122000e+02   2.5087671e+03   1.1916300e+02   5.8244700e+02   3.4800000e-01   
1.1200000e+03   2.8223400e+02   2.5112991e+03   1.1832700e+02   5.7927100e+02   3.4400000e-01   
1.1201250e+03   2.8346400e+02   2.5116560e+03   1.1588400e+02   5.7138500e+02   3.3700000e-01   
1.1202500e+03   2.8469500e+02   2.5099570e+03   1.1222900e+02   5.6318300e+02   3.2800000e-01   
1.1203750e+03   2.8532100e+02   2.5059399e+03   1.0669100e+02   5.5498100e+02   3.2000000e-01   
1.1205000e+03   2.8241100e+02   2.5015381e+03   1.0146500e+02   5.4831400e+02   3.1900000e-01   
1.1206250e+03   2.7831000e+02   2.5017410e+03   9.9757000e+01   5.4328800e+02   3.2200000e-01   
1.1207500e+03   2.7390800e+02   2.5079500e+03   1.0139000e+02   5.4450800e+02   3.3100000e-01   
1.1208750e+03   2.7030200e+02   2.5144150e+03   1.0501000e+02   5.4768300e+02   3.3900000e-01   
