~VERSION INFORMATION                                    
VERS.   2.0        : LAS LOG ASCII STANDARD VERSION 2.0 
WRAP.   NO         : ONE LINE PER DEPTH STEP            
~WELL INFORMATION                                       
STRT.M   208.0000                     :                 
STOP.M   1569.1250                    :                 
STEP.M   0.1250                       :                 
NULL.    -999.25                      :                 
WELL.    Alberta Well     : Well Name       
OPER.                                 : Operator        
FLD .                                 : Field           
DATE.                                 : Date Logged     
SRVC.                                 : Service Company 
UWI .                                 : UNIQUE WELL ID  
LSD .                                 : LSD             
SEC .                                 : Section         
TWP .                                 : Township        
RGE .                                 : Range           
MER .                                 : Meridian        
LOC .                                 : Location Descrip
~PARAMETER                                              
EKB.M   977.400    : ELEVATION KB                       
EGL.M   973.3000   : GL Elevation                       
TLI.M   208.0000   : Log Run Top                        
BLI.M   1586.0000  : Log Run Base                       
~CURVE                                                  
DEPT   .M                   : 1 DEPTH                   
DTP    .usec/m              : 2 DTP                     
RHOB   .kg/m3               : 3 RHOB                    
GR     .API      UNITS      : 4 GR                      
DTS    .usec/m              : 5 DTS                     
POISSON.NO       UNITS      : 6 POISSON                 
~TOPS                                                   
#TOPS NAME          .        DEPTH:                     
BellyRiver          .    516    :                       
BasalBellyRiver     .    753    :                       
LeaPark             .    768    :                       
Colorado            .    892    :                       
MedicineHat         .    1032   :                       
BaseFishScales      .    1273   :                       
Viking              .    1307   :                       
Joli Fou            .    1372   :                       
Mannville           .    1402   :                       
MedicineRiverCoal   .    1469   :                       
Glauconitic         .    1499   :                       
TopPorosity         .    1502.5 :                       
Ostracod            .    1514.5 :                       
Ellerslie           .    1540   :                       
Pekisko             .    1554   :                       
TD                  .    1572   :                       
~A                                                      
# ...
4.7775000e+02   3.0850300e+02   2.5109470e+03   8.3553000e+01   7.0896800e+02   3.8300000e-01   
4.7787500e+02   3.0960200e+02   2.5017581e+03   8.4379000e+01   7.1018800e+02   3.8300000e-01   
4.7800000e+02   3.1305400e+02   2.4778940e+03   8.4828000e+01   7.1643400e+02   3.8200000e-01   
4.7812500e+02   3.1594800e+02   2.4385029e+03   8.6044000e+01   7.4141900e+02   3.8900000e-01   
4.7825000e+02   3.2504800e+02   2.3857549e+03   8.7939000e+01   7.7687700e+02   3.9400000e-01   
4.7837500e+02   3.3773800e+02   2.3040071e+03   8.8680000e+01   8.1603700e+02   3.9700000e-01   
4.7850000e+02   3.5116300e+02   2.1745740e+03   8.6472000e+01   8.5233600e+02   3.9800000e-01   
4.7862500e+02   3.6379100e+02   2.0284270e+03   8.1588000e+01   8.8074800e+02   3.9700000e-01   
4.7875000e+02   3.7730100e+02   1.9307250e+03   7.5925000e+01   8.9174700e+02   3.9100000e-01   
4.7887500e+02   3.8551000e+02   1.9177430e+03   7.2113000e+01   8.8930700e+02   3.8400000e-01   
4.7900000e+02   3.8290900e+02   1.9950520e+03   7.1491000e+01   8.7220900e+02   3.8100000e-01   
4.7912500e+02   3.7354600e+02   2.1393159e+03   7.3230000e+01   8.4495300e+02   3.7900000e-01   
4.7925000e+02   3.6167600e+02   2.3001621e+03   7.6810000e+01   8.1706600e+02   3.7800000e-01   
4.7937500e+02   3.4937300e+02   2.4191831e+03   8.0066000e+01   7.9225000e+02   3.7900000e-01   
4.7950000e+02   3.3586300e+02   2.4710029e+03   8.2117000e+01   7.7532000e+02   3.8400000e-01   
4.7962500e+02   3.3067200e+02   2.4747141e+03   8.2669000e+01   7.7426900e+02   3.8800000e-01   
4.7975000e+02   3.3345100e+02   2.4626069e+03   8.2847000e+01   7.8501600e+02   3.9000000e-01   
4.7987500e+02   3.4037600e+02   2.4422209e+03   8.3385000e+01   8.0417500e+02   3.9100000e-01   
4.8000000e+02   3.5028100e+02   2.3904651e+03   8.4369000e+01   8.2693000e+02   3.9100000e-01   
4.8012500e+02   3.6124500e+02   2.2622571e+03   8.4353000e+01   8.5182200e+02   3.9000000e-01   
4.8025000e+02   3.7292200e+02   2.0408929e+03   8.3369000e+01   9.0306200e+02   3.9700000e-01   
4.8037500e+02   3.8541800e+02   1.8046121e+03   8.1370000e+01   9.8538500e+02   4.1000000e-01   
4.8050000e+02   3.9843300e+02   1.6308790e+03   8.0064000e+01   1.0673860e+03   4.1900000e-01   
4.8062500e+02   4.0974500e+02   1.5473000e+03   8.0099000e+01   1.1484340e+03   4.2700000e-01   
4.8075000e+02   4.2040800e+02   1.5505400e+03   8.0191000e+01   1.2251740e+03   4.3300000e-01   
4.8087500e+02   4.2926000e+02   1.6234980e+03   7.9026000e+01   1.2688630e+03   4.3500000e-01   
4.8100000e+02   4.3233100e+02   1.7292600e+03   7.6401000e+01   1.2561639e+03   4.3300000e-01   
4.8112500e+02   4.3175000e+02   1.8229020e+03   7.2802000e+01   1.2156930e+03   4.2800000e-01   
4.8125000e+02   4.2976500e+02   1.8690510e+03   6.9635000e+01   1.1495110e+03   4.1900000e-01   
4.8137500e+02   4.1943800e+02   1.8731270e+03   6.8711000e+01   1.0576160e+03   4.0700000e-01   
4.8150000e+02   3.9844800e+02   1.8707841e+03   7.0495000e+01   9.4269000e+02   3.9100000e-01   
4.8162500e+02   3.7052500e+02   1.8987930e+03   7.3483000e+01   8.3212800e+02   3.7600000e-01   
4.8175000e+02   3.4029200e+02   1.9755389e+03   7.6456000e+01   7.3415700e+02   3.6300000e-01   
4.8187500e+02   3.1125600e+02   2.1077251e+03   7.8720000e+01   6.5880600e+02   3.5600000e-01   
4.8200000e+02   2.9082500e+02   2.2670730e+03   7.9199000e+01   6.0673400e+02   3.5100000e-01   
4.8212500e+02   2.8135900e+02   2.3932720e+03   7.8552000e+01   5.8408100e+02   3.4900000e-01   
4.8225000e+02   2.8255700e+02   2.4529629e+03   7.7733000e+01   5.8543900e+02   3.4800000e-01   
4.8237500e+02   2.8887200e+02   2.4726189e+03   7.6233000e+01   5.9637000e+02   3.4700000e-01   
4.8250000e+02   2.9619400e+02   2.4745801e+03   7.5636000e+01   6.2167000e+02   3.5300000e-01   
4.8262500e+02   3.0357500e+02   2.4617830e+03   7.5738000e+01   6.6173400e+02   3.6700000e-01   
4.8275000e+02   3.1307000e+02   2.4204180e+03   7.5248000e+01   7.0120900e+02   3.7600000e-01   
4.8287500e+02   3.2603900e+02   2.3342810e+03   7.4272000e+01   7.4211300e+02   3.8000000e-01   
4.8300000e+02   3.4028400e+02   2.2212141e+03   7.2422000e+01   7.8772900e+02   3.8500000e-01   
4.8312500e+02   3.5403400e+02   2.1343740e+03   7.1063000e+01   8.2598400e+02   3.8700000e-01   
4.8325000e+02   3.6756700e+02   2.0934629e+03   7.0603000e+01   8.5296600e+02   3.8600000e-01   
4.8337500e+02   3.7717700e+02   2.0890139e+03   7.1768000e+01   8.7307200e+02   3.8500000e-01   
4.8350000e+02   3.8085200e+02   2.0973679e+03   7.3287000e+01   8.8508000e+02   3.8600000e-01   
4.8362500e+02   3.8018600e+02   2.0898010e+03   7.5324000e+01   8.8888700e+02   3.8800000e-01   
4.8375000e+02   3.7613100e+02   2.0566160e+03   7.6320000e+01   8.7835000e+02   3.8800000e-01   
4.8387500e+02   3.6939900e+02   2.0237610e+03   7.7869000e+01   8.5765500e+02   3.8600000e-01   
4.8400000e+02   3.6231900e+02   2.0121780e+03   7.9063000e+01   8.3479500e+02   3.8400000e-01   
4.8412500e+02   3.5595100e+02   2.0273690e+03   7.9337000e+01   8.1182900e+02   3.8100000e-01   
4.8425000e+02   3.5100600e+02   2.0685940e+03   7.8178000e+01   7.9347000e+02   3.7800000e-01   
4.8437500e+02   3.4770300e+02   2.1297710e+03   7.6290000e+01   7.8156600e+02   3.7700000e-01   
4.8450000e+02   3.4634100e+02   2.1975349e+03   7.4143000e+01   7.7161900e+02   3.7400000e-01   
4.8462500e+02   3.4612400e+02   2.2563049e+03   7.2990000e+01   7.7098800e+02   3.7400000e-01   
4.8475000e+02   3.4703000e+02   2.2853530e+03   7.3965000e+01   7.7712900e+02   3.7500000e-01   
4.8487500e+02   3.5158000e+02   2.2605940e+03   7.5438000e+01   7.8369100e+02   3.7400000e-01   
4.8500000e+02   3.5943400e+02   2.1842681e+03   7.6997000e+01   7.9025200e+02   3.7000000e-01   
4.8512500e+02   3.6865000e+02   2.1021721e+03   7.8769000e+01   8.1677200e+02   3.7200000e-01   
4.8525000e+02   3.7778100e+02   2.0527180e+03   8.0352000e+01   8.4926500e+02   3.7700000e-01   
4.8537500e+02   3.8619900e+02   2.0415190e+03   8.1462000e+01   8.7746700e+02   3.8000000e-01   
4.8550000e+02   3.9077900e+02   2.0563459e+03   8.2621000e+01   9.0688900e+02   3.8600000e-01   
4.8562500e+02   3.9164600e+02   2.0720100e+03   8.3504000e+01   9.3641700e+02   3.9400000e-01   
4.8575000e+02   3.8923100e+02   2.0679500e+03   8.3710000e+01   9.4291500e+02   3.9700000e-01   
4.8587500e+02   3.8504500e+02   2.0544580e+03   8.2902000e+01   9.3248300e+02   3.9700000e-01   
4.8600000e+02   3.7902500e+02   2.0414020e+03   8.0604000e+01   9.1793000e+02   3.9700000e-01   
4.8612500e+02   3.7276500e+02   2.0222100e+03   7.8555000e+01   9.0316600e+02   3.9700000e-01   
4.8625000e+02   3.6812200e+02   1.9973010e+03   7.7063000e+01   8.9147300e+02   3.9700000e-01   
4.8637500e+02   3.6613400e+02   1.9804510e+03   7.7292000e+01   8.9380800e+02   3.9900000e-01   
4.8650000e+02   3.6731800e+02   1.9866720e+03   7.8872000e+01   9.1090600e+02   4.0300000e-01   
4.8662500e+02   3.7238700e+02   2.0214771e+03   8.1003000e+01   9.3816200e+02   4.0600000e-01   
4.8675000e+02   3.7974600e+02   2.0672009e+03   8.1661000e+01   9.7065500e+02   4.1000000e-01   
4.8687500e+02   3.8753800e+02   2.0839099e+03   8.1914000e+01   1.0034630e+03   4.1200000e-01   
4.8700000e+02   3.9533000e+02   2.0566050e+03   8.0334000e+01   1.0301300e+03   4.1400000e-01   
4.8712500e+02   4.0282000e+02   2.0215660e+03   7.9001000e+01   1.0502350e+03   4.1400000e-01   
4.8725000e+02   4.0959800e+02   2.0094139e+03   7.9085000e+01   1.0576370e+03   4.1200000e-01   
4.8737500e+02   4.1404700e+02   2.0235540e+03   8.1903000e+01   1.0519170e+03   4.0800000e-01   
4.8750000e+02   4.1773800e+02   2.0488169e+03   8.6055000e+01   1.0346080e+03   4.0300000e-01   
4.8762500e+02   4.1931600e+02   2.0550869e+03   9.0850000e+01   1.0073520e+03   3.9500000e-01   
4.8775000e+02   4.2074000e+02   2.0225740e+03   9.2497000e+01   9.6104200e+02   3.8100000e-01   
4.8787500e+02   4.1543800e+02   1.9757870e+03   9.0599000e+01   8.9965300e+02   3.6400000e-01   
4.8800000e+02   4.0266600e+02   1.9689490e+03   8.6648000e+01   8.3424800e+02   3.4800000e-01   
