~VERSION INFORMATION                                    
VERS.   2.0        : LAS LOG ASCII STANDARD VERSION 2.0 
WRAP.   NO         : ONE LINE PER DEPTH STEP            
~WELL INFORMATION                                       
STRT.M   208.0000                     :                 
STOP.M   1569.1250                    :                 
STEP.M   0.1250                       :                 
NULL.    -999.25                      :                 
WELL.    Alberta Well     : Well Name       
OPER.                                 : Operator        
FLD .                                 : Field           
DATE.                                 : Date Logged     
SRVC.                                 : Service Company 
UWI .                                 : UNIQUE WELL ID  
LSD .                                 : LSD             
SEC .                                 : Section         
TWP .                                 : Township        
RGE .                                 : Range           
MER .                                 : Meridian        
LOC .                                 : Location Descrip
~PARAMETER                                              
EKB.M   977.400    : ELEVATION KB                       
EGL.M   973.3000   : GL Elevation                       
TLI.M   208.0000   : Log Run Top                        
BLI.M   1586.0000  : Log Run Base                       
~CURVE                                                  
DEPT   .M                   : 1 DEPTH                   
DTP    .usec/m              : 2 DTP                     
RHOB   .kg/m3               : 3 RHOB                    
GR     .API      UNITS      : 4 GR                      
DTS    .usec/m              : 5 DTS                     
POISSON.NO       UNITS      : 6 POISSON                 
~TOPS                                                   
#TOPS NAME          .        DEPTH:                     
BellyRiver          .    516    :                       
BasalBellyRiver     .    753    :                       
LeaPark             .    768    :                       
Colorado            .    892    :                       
MedicineHat         .    1032   :                       
BaseFishScales      .    1273   :                       
Viking              .    1307   :                       
Joli Fou            .    1372   :                       
Mannville           .    1402   :                       
MedicineRiverCoal   .    1469   :                       
Glauconitic         .    1499   :                       
TopPorosity         .    1502.5 :                       
Ostracod            .    1514.5 :                       
Ellerslie           .    1540   :                       
Pekisko             .    1554   :                       
TD                  .    1572   :                       
~A                                                      
# ...
6.5412500e+02   2.9777900e+02   2.4692510e+03   6.5994000e+01   6.4181700e+02   3.6300000e-01   
6.5425000e+02   2.9600700e+02   2.4692620e+03   6.5595000e+01   6.3832600e+02   3.6300000e-01   
6.5437500e+02   2.9658800e+02   2.4692871e+03   6.5564000e+01   6.3965100e+02   3.6300000e-01   
6.5450000e+02   2.9962900e+02   2.4695920e+03   6.5889000e+01   6.4589700e+02   3.6300000e-01   
6.5462500e+02   3.0392300e+02   2.4674070e+03   6.6792000e+01   6.5552900e+02   3.6300000e-01   
6.5475000e+02   3.0843400e+02   2.4611321e+03   6.7933000e+01   6.6844200e+02   3.6500000e-01   
6.5487500e+02   3.1324700e+02   2.4519131e+03   6.8127000e+01   6.8156500e+02   3.6600000e-01   
6.5500000e+02   3.1756500e+02   2.4430691e+03   6.7079000e+01   6.9468900e+02   3.6800000e-01   
6.5512500e+02   3.2106200e+02   2.4375239e+03   6.5251000e+01   7.0781200e+02   3.7000000e-01   
6.5525000e+02   3.2464500e+02   2.4352510e+03   6.3066000e+01   7.2093500e+02   3.7300000e-01   
6.5537500e+02   3.2803400e+02   2.4341060e+03   6.1655000e+01   7.3405800e+02   3.7500000e-01   
6.5550000e+02   3.3101300e+02   2.4317881e+03   6.1582000e+01   7.4718100e+02   3.7800000e-01   
6.5562500e+02   3.3388400e+02   2.4257949e+03   6.2029000e+01   7.5876900e+02   3.8000000e-01   
6.5575000e+02   3.3615100e+02   2.4154050e+03   6.1853000e+01   7.7025200e+02   3.8200000e-01   
6.5587500e+02   3.3789900e+02   2.4030530e+03   6.1254000e+01   7.8020000e+02   3.8500000e-01   
6.5600000e+02   3.3863400e+02   2.3917319e+03   6.0618000e+01   7.8697100e+02   3.8600000e-01   
6.5612500e+02   3.3813900e+02   2.3836531e+03   6.0597000e+01   7.9506800e+02   3.9000000e-01   
6.5625000e+02   3.3641300e+02   2.3802830e+03   6.1321000e+01   7.9866500e+02   3.9200000e-01   
6.5637500e+02   3.3436300e+02   2.3818279e+03   6.2296000e+01   7.9580400e+02   3.9300000e-01   
6.5650000e+02   3.3170900e+02   2.3860491e+03   6.2294000e+01   7.8945300e+02   3.9300000e-01   
6.5662500e+02   3.2883800e+02   2.3875669e+03   6.1554000e+01   7.7982100e+02   3.9200000e-01   
6.5675000e+02   3.2596700e+02   2.3800630e+03   6.0527000e+01   7.6383700e+02   3.8900000e-01   
6.5687500e+02   3.2309700e+02   2.3650530e+03   5.9849000e+01   7.4436300e+02   3.8400000e-01   
6.5700000e+02   3.1901900e+02   2.3531399e+03   6.0080000e+01   7.2467800e+02   3.8000000e-01   
6.5712500e+02   3.1360200e+02   2.3524380e+03   6.0878000e+01   7.0345800e+02   3.7600000e-01   
6.5725000e+02   3.0755900e+02   2.3626169e+03   6.1609000e+01   6.8059700e+02   3.7200000e-01   
6.5737500e+02   3.0170900e+02   2.3764270e+03   6.2159000e+01   6.5609600e+02   3.6600000e-01   
6.5750000e+02   2.9627000e+02   2.3856890e+03   6.2246000e+01   6.3763200e+02   3.6200000e-01   
6.5762500e+02   2.9274900e+02   2.3887729e+03   6.1939000e+01   6.1958700e+02   3.5600000e-01   
6.5775000e+02   2.9138800e+02   2.3894670e+03   6.1829000e+01   6.0614900e+02   3.5000000e-01   
6.5787500e+02   2.9237800e+02   2.3892339e+03   6.1379000e+01   5.9609600e+02   3.4200000e-01   
6.5800000e+02   2.9462200e+02   2.3875901e+03   6.0419000e+01   5.9085900e+02   3.3500000e-01   
6.5812500e+02   2.9708300e+02   2.3840259e+03   5.9553000e+01   5.8593800e+02   3.2700000e-01   
6.5825000e+02   2.9863800e+02   2.3786660e+03   5.8723000e+01   5.8408800e+02   3.2300000e-01   
6.5837500e+02   2.9926500e+02   2.3738059e+03   5.7777000e+01   5.8244700e+02   3.2100000e-01   
6.5850000e+02   2.9907100e+02   2.3720281e+03   5.6846000e+01   5.8234200e+02   3.2100000e-01   
6.5862500e+02   2.9835900e+02   2.3732041e+03   5.5988000e+01   5.8234200e+02   3.2200000e-01   
6.5875000e+02   2.9784100e+02   2.3764390e+03   5.6050000e+01   5.8234200e+02   3.2300000e-01   
6.5887500e+02   2.9743100e+02   2.3817539e+03   5.7343000e+01   5.8234200e+02   3.2400000e-01   
6.5900000e+02   2.9671900e+02   2.3883560e+03   5.9158000e+01   5.8080700e+02   3.2300000e-01   
6.5912500e+02   2.9589900e+02   2.3951311e+03   6.0361000e+01   5.7916600e+02   3.2300000e-01   
6.5925000e+02   2.9477700e+02   2.4021599e+03   6.0133000e+01   5.7599100e+02   3.2300000e-01   
6.5937500e+02   2.9354600e+02   2.4100359e+03   5.8323000e+01   5.7271000e+02   3.2200000e-01   
6.5950000e+02   2.9231600e+02   2.4196289e+03   5.6079000e+01   5.6942900e+02   3.2100000e-01   
6.5962500e+02   2.9138800e+02   2.4302939e+03   5.3962000e+01   5.6921900e+02   3.2200000e-01   
6.5975000e+02   2.9026600e+02   2.4378469e+03   5.2312000e+01   5.6921900e+02   3.2400000e-01   
6.5987500e+02   2.8933700e+02   2.4394270e+03   5.1524000e+01   5.6921900e+02   3.2600000e-01   
6.6000000e+02   2.8821500e+02   2.4376931e+03   5.1202000e+01   5.6921900e+02   3.2800000e-01   
6.6012500e+02   2.8698500e+02   2.4368540e+03   5.0638000e+01   5.6921900e+02   3.3000000e-01   
6.6025000e+02   2.8545300e+02   2.4395750e+03   5.0010000e+01   5.6614800e+02   3.3000000e-01   
6.6037500e+02   2.8351000e+02   2.4452451e+03   4.9776000e+01   5.6133200e+02   3.2900000e-01   
6.6050000e+02   2.8055400e+02   2.4508589e+03   5.0697000e+01   5.5641100e+02   3.3000000e-01   
6.6062500e+02   2.7697200e+02   2.4546499e+03   5.2567000e+01   5.4995500e+02   3.3000000e-01   
6.6075000e+02   2.7297900e+02   2.4557019e+03   5.4202000e+01   5.4492800e+02   3.3200000e-01   
6.6087500e+02   2.6948200e+02   2.4524231e+03   5.4767000e+01   5.4307800e+02   3.3700000e-01   
6.6100000e+02   2.6650300e+02   2.4446189e+03   5.4235000e+01   5.4604300e+02   3.4400000e-01   
6.6112500e+02   2.6453800e+02   2.4347859e+03   5.3608000e+01   5.5239400e+02   3.5100000e-01   
6.6125000e+02   2.6350100e+02   2.4255420e+03   5.3352000e+01   5.6049100e+02   3.5800000e-01   
6.6137500e+02   2.6328400e+02   2.4176760e+03   5.3313000e+01   5.6869300e+02   3.6400000e-01   
6.6150000e+02   2.6328400e+02   2.4099939e+03   5.3678000e+01   5.7689500e+02   3.6800000e-01   
6.6162500e+02   2.6298200e+02   2.3988940e+03   5.4411000e+01   5.8356200e+02   3.7300000e-01   
6.6175000e+02   2.6664700e+02   2.3796179e+03   5.4767000e+01   5.9319400e+02   3.7300000e-01   
6.6187500e+02   2.7614900e+02   2.3503159e+03   5.4928000e+01   6.1378300e+02   3.7300000e-01   
6.6200000e+02   2.8661800e+02   2.3189990e+03   5.5137000e+01   6.4278500e+02   3.7600000e-01   
6.6212500e+02   2.9656900e+02   2.3023259e+03   5.5707000e+01   6.7231200e+02   3.7900000e-01   
6.6225000e+02   3.0641200e+02   2.3101279e+03   5.7243000e+01   7.0030400e+02   3.8200000e-01   
6.6237500e+02   3.1679700e+02   2.3362141e+03   5.9249000e+01   7.1437300e+02   3.7800000e-01   
6.6250000e+02   3.1767400e+02   2.3684280e+03   6.0512000e+01   7.1060900e+02   3.7500000e-01   
6.6262500e+02   3.1180300e+02   2.3976169e+03   6.0224000e+01   6.9340500e+02   3.7300000e-01   
6.6275000e+02   3.0179400e+02   2.4189871e+03   5.8321000e+01   6.7229000e+02   3.7400000e-01   
6.6287500e+02   2.9253200e+02   2.4326299e+03   5.5466000e+01   6.5096500e+02   3.7300000e-01   
6.6300000e+02   2.7900100e+02   2.4398279e+03   5.2829000e+01   6.4192200e+02   3.8400000e-01   
6.6312500e+02   2.7159700e+02   2.4402390e+03   5.1534000e+01   6.4446700e+02   3.9200000e-01   
6.6325000e+02   2.7617700e+02   2.4312070e+03   5.1695000e+01   6.5695900e+02   3.9300000e-01   
6.6337500e+02   2.8851500e+02   2.4105901e+03   5.2429000e+01   6.7622400e+02   3.8900000e-01   
6.6350000e+02   3.0155300e+02   2.3831460e+03   5.3389000e+01   6.9897900e+02   3.8600000e-01   
6.6362500e+02   3.1456800e+02   2.3595559e+03   5.5288000e+01   7.2194500e+02   3.8300000e-01   
6.6375000e+02   3.2482300e+02   2.3478369e+03   5.8272000e+01   7.4030400e+02   3.8100000e-01   
6.6387500e+02   3.2756200e+02   2.3496340e+03   6.1769000e+01   7.4913700e+02   3.8200000e-01   
6.6400000e+02   3.2585900e+02   2.3600300e+03   6.4921000e+01   7.5119800e+02   3.8400000e-01   
6.6412500e+02   3.2279500e+02   2.3714790e+03   6.6963000e+01   7.4669700e+02   3.8500000e-01   
6.6425000e+02   3.1951400e+02   2.3814451e+03   6.8086000e+01   7.3717000e+02   3.8400000e-01   
6.6437500e+02   3.1683700e+02   2.3920049e+03   6.8695000e+01   7.2425700e+02   3.8200000e-01   
