~VERSION INFORMATION                                    
VERS.   2.0        : LAS LOG ASCII STANDARD VERSION 2.0 
WRAP.   NO         : ONE LINE PER DEPTH STEP            
~WELL INFORMATION                                       
STRT.M   208.0000                     :                 
STOP.M   1569.1250                    :                 
STEP.M   0.1250                       :                 
NULL.    -999.25                      :                 
WELL.    Alberta Well     : Well Name       
OPER.                                 : Operator        
FLD .                                 : Field           
DATE.                                 : Date Logged     
SRVC.                                 : Service Company 
UWI .                                 : UNIQUE WELL ID  
LSD .                                 : LSD             
SEC .                                 : Section         
TWP .                                 : Township        
RGE .                                 : Range           
MER .                                 : Meridian        
LOC .                                 : Location Descrip
~PARAMETER                                              
EKB.M   977.400    : ELEVATION KB                       
EGL.M   973.3000   : GL Elevation                       
TLI.M   208.0000   : Log Run Top                        
BLI.M   1586.0000  : Log Run Base                       
~CURVE                                                  
DEPT   .M                   : 1 DEPTH                   
DTP    .usec/m              : 2 DTP                     
RHOB   .kg/m3               : 3 RHOB                    
GR     .API      UNITS      : 4 GR                      
DTS    .usec/m              : 5 DTS                     
POISSON.NO       UNITS      : 6 POISSON                 
~TOPS                                                   
#TOPS NAME          .        DEPTH:                     
BellyRiver          .    516    :                       
BasalBellyRiver     .    753    :                       
LeaPark             .    768    :                       
Colorado            .    892    :                       
MedicineHat         .    1032   :                       
BaseFishScales      .    1273   :                       
Viking              .    1307   :                       
Joli Fou            .    1372   :                       
Mannville           .    1402   :                       
MedicineRiverCoal   .    1469   :                       
Glauconitic         .    1499   :                       
TopPorosity         .    1502.5 :                       
Ostracod            .    1514.5 :                       
Ellerslie           .    1540   :                       
Pekisko             .    1554   :                       
TD                  .    1572   :                       
~A                                                      
# ...
1.2870000e+03   3.0394100e+02   2.5347109e+03   1.0105300e+02   6.5702600e+02   3.6400000e-01   
1.2871250e+03   3.0309500e+02   2.5687241e+03   9.9534000e+01   6.5589500e+02   3.6400000e-01   
1.2872500e+03   3.0314100e+02   2.5651460e+03   1.0216400e+02   6.5828800e+02   3.6500000e-01   
1.2873750e+03   3.0443500e+02   2.5160630e+03   1.0827000e+02   6.6490500e+02   3.6700000e-01   
1.2875000e+03   3.0692100e+02   2.4527629e+03   1.1473600e+02   6.7455800e+02   3.6900000e-01   
1.2876250e+03   3.1037300e+02   2.4107981e+03   1.2060900e+02   6.8532100e+02   3.7100000e-01   
1.2877500e+03   3.1430600e+02   2.3921350e+03   1.2320500e+02   6.9584100e+02   3.7200000e-01   
1.2878750e+03   3.1760000e+02   2.3843130e+03   1.2232700e+02   7.0388300e+02   3.7200000e-01   
1.2880000e+03   3.1954900e+02   2.3778601e+03   1.2045400e+02   7.0776500e+02   3.7200000e-01   
1.2881250e+03   3.1996000e+02   2.3748521e+03   1.1910900e+02   7.0646100e+02   3.7100000e-01   
1.2882500e+03   3.1851100e+02   2.3800859e+03   1.1795700e+02   7.0113600e+02   3.7000000e-01   
1.2883750e+03   3.1509400e+02   2.3959529e+03   1.1830300e+02   6.9218100e+02   3.6900000e-01   
1.2885000e+03   3.1037200e+02   2.4203210e+03   1.1738100e+02   6.8146000e+02   3.6900000e-01   
1.2886250e+03   3.0500700e+02   2.4492549e+03   1.1509800e+02   6.7063300e+02   3.7000000e-01   
1.2887500e+03   2.9969300e+02   2.4745911e+03   1.1254500e+02   6.6164900e+02   3.7100000e-01   
1.2888750e+03   2.9528900e+02   2.4889590e+03   1.1157000e+02   6.5371200e+02   3.7200000e-01   
1.2890000e+03   2.9245500e+02   2.4914070e+03   1.1256100e+02   6.4737300e+02   3.7200000e-01   
1.2891250e+03   2.9140500e+02   2.4868650e+03   1.1399700e+02   6.4206100e+02   3.7000000e-01   
1.2892500e+03   2.9197700e+02   2.4833411e+03   1.1434000e+02   6.3742600e+02   3.6700000e-01   
1.2893750e+03   2.9374600e+02   2.4825730e+03   1.1448300e+02   6.3375400e+02   3.6300000e-01   
1.2895000e+03   2.9609900e+02   2.4798340e+03   1.1432200e+02   6.3290800e+02   3.6000000e-01   
1.2896250e+03   2.9862000e+02   2.4733789e+03   1.1557700e+02   6.3440200e+02   3.5800000e-01   
1.2897500e+03   3.0269100e+02   2.4600020e+03   1.1783400e+02   6.4460600e+02   3.5900000e-01   
1.2898750e+03   3.0393100e+02   2.4600759e+03   1.1746100e+02   6.5145300e+02   3.6100000e-01   
1.2900000e+03   3.0457400e+02   2.4613320e+03   1.1666100e+02   6.5680800e+02   3.6300000e-01   
1.2901250e+03   3.0452300e+02   2.4605869e+03   1.1589700e+02   6.6021500e+02   3.6500000e-01   
1.2902500e+03   3.0397500e+02   2.4584871e+03   1.1556500e+02   6.6073200e+02   3.6600000e-01   
1.2903750e+03   3.0295700e+02   2.4483979e+03   1.1466700e+02   6.5891100e+02   3.6600000e-01   
1.2905000e+03   3.0174800e+02   2.4312610e+03   1.1394200e+02   6.5510000e+02   3.6500000e-01   
1.2906250e+03   3.0045800e+02   2.4183059e+03   1.1378600e+02   6.4993500e+02   3.6400000e-01   
1.2907500e+03   2.9920600e+02   2.4192480e+03   1.1411600e+02   6.4468600e+02   3.6300000e-01   
1.2908750e+03   2.9791500e+02   2.4338020e+03   1.1544100e+02   6.4035700e+02   3.6200000e-01   
1.2910000e+03   2.9666300e+02   2.4553779e+03   1.1611000e+02   6.3639900e+02   3.6100000e-01   
1.2911250e+03   2.9537200e+02   2.4692290e+03   1.1589000e+02   6.3215500e+02   3.6000000e-01   
1.2912500e+03   2.9412000e+02   2.4748789e+03   1.1464600e+02   6.2942600e+02   3.6000000e-01   
1.2913750e+03   2.9307100e+02   2.4797119e+03   1.1217900e+02   6.2864300e+02   3.6100000e-01   
1.2915000e+03   2.9251000e+02   2.4853000e+03   1.0912300e+02   6.2952200e+02   3.6200000e-01   
1.2916250e+03   2.9258200e+02   2.4888940e+03   1.0571200e+02   6.3234900e+02   3.6400000e-01   
1.2917500e+03   2.9349200e+02   2.5015020e+03   1.0250100e+02   6.3867900e+02   3.6600000e-01   
1.2918750e+03   2.9530500e+02   2.5249709e+03   9.9703000e+01   6.4646900e+02   3.6800000e-01   
1.2920000e+03   2.9789800e+02   2.5541121e+03   9.8620000e+01   6.5495700e+02   3.7000000e-01   
1.2921250e+03   3.0111000e+02   2.5646069e+03   1.0014400e+02   6.6471500e+02   3.7100000e-01   
1.2922500e+03   3.0465400e+02   2.5486350e+03   1.0310800e+02   6.7578600e+02   3.7200000e-01   
1.2923750e+03   3.0808100e+02   2.5112029e+03   1.0556200e+02   6.8663400e+02   3.7400000e-01   
1.2925000e+03   3.1108200e+02   2.4758950e+03   1.0697500e+02   6.9684600e+02   3.7600000e-01   
1.2926250e+03   3.1347000e+02   2.4538889e+03   1.0635600e+02   7.0486700e+02   3.7700000e-01   
1.2927500e+03   3.1496000e+02   2.4441289e+03   1.0627900e+02   7.0936400e+02   3.7700000e-01   
1.2928750e+03   3.1558700e+02   2.4324761e+03   1.0847000e+02   7.0963700e+02   3.7700000e-01   
1.2930000e+03   3.1563500e+02   2.4162981e+03   1.1173000e+02   7.0656700e+02   3.7500000e-01   
1.2931250e+03   3.1543200e+02   2.4068330e+03   1.1320700e+02   7.0205700e+02   3.7400000e-01   
1.2932500e+03   3.1530700e+02   2.4165701e+03   1.1244900e+02   6.9838500e+02   3.7200000e-01   
1.2933750e+03   3.1564700e+02   2.4486321e+03   1.0778100e+02   6.9692600e+02   3.7100000e-01   
1.2935000e+03   3.1668200e+02   2.4888000e+03   1.0339800e+02   7.0022000e+02   3.7100000e-01   
1.2936250e+03   3.1881800e+02   2.5047429e+03   1.0183400e+02   7.0935500e+02   3.7300000e-01   
1.2937500e+03   3.2212400e+02   2.4823970e+03   1.0353200e+02   7.2470400e+02   3.7700000e-01   
1.2938750e+03   3.2645700e+02   2.4433630e+03   1.0624900e+02   7.4536400e+02   3.8100000e-01   
1.2940000e+03   3.3641600e+02   2.4040281e+03   1.1314300e+02   7.9623000e+02   3.9100000e-01   
1.2941250e+03   3.4053500e+02   2.3904790e+03   1.2043900e+02   8.1846300e+02   3.9500000e-01   
1.2942500e+03   3.4304000e+02   2.3621079e+03   1.3191100e+02   8.3215400e+02   3.9800000e-01   
1.2943750e+03   3.4358200e+02   2.3428650e+03   1.4134700e+02   8.3545200e+02   3.9800000e-01   
1.2945000e+03   3.4237500e+02   2.3505691e+03   1.4170100e+02   8.2732900e+02   3.9700000e-01   
1.2946250e+03   3.3952700e+02   2.3778301e+03   1.3338100e+02   8.0926000e+02   3.9300000e-01   
1.2947500e+03   3.3582300e+02   2.4090500e+03   1.2085400e+02   7.8564600e+02   3.8800000e-01   
1.2948750e+03   3.3184800e+02   2.4234780e+03   1.1107400e+02   7.6231000e+02   3.8300000e-01   
1.2950000e+03   3.2807000e+02   2.4136221e+03   1.0717500e+02   7.4208700e+02   3.7900000e-01   
1.2951250e+03   3.2480200e+02   2.4015129e+03   1.0600200e+02   7.2698700e+02   3.7500000e-01   
1.2952500e+03   3.2228900e+02   2.4031641e+03   1.0499700e+02   7.1744400e+02   3.7400000e-01   
1.2953750e+03   3.2029400e+02   2.4103650e+03   1.0516300e+02   7.1224900e+02   3.7300000e-01   
1.2955000e+03   3.1864900e+02   2.4215959e+03   1.0585500e+02   7.0886300e+02   3.7300000e-01   
1.2956250e+03   3.1721100e+02   2.4368879e+03   1.0836100e+02   7.0650300e+02   3.7400000e-01   
1.2957500e+03   3.1569600e+02   2.4523821e+03   1.1009200e+02   7.0482100e+02   3.7500000e-01   
1.2958750e+03   3.1407800e+02   2.4647661e+03   1.1113400e+02   7.0379500e+02   3.7600000e-01   
1.2960000e+03   3.1255800e+02   2.4721960e+03   1.1095100e+02   7.0373200e+02   3.7700000e-01   
1.2961250e+03   3.1126300e+02   2.4760010e+03   1.0993200e+02   7.0465300e+02   3.7900000e-01   
1.2962500e+03   3.1027400e+02   2.4747690e+03   1.0718500e+02   7.0625100e+02   3.8000000e-01   
1.2963750e+03   3.0985500e+02   2.4676880e+03   1.0502200e+02   7.0850600e+02   3.8200000e-01   
1.2965000e+03   3.1003100e+02   2.4599829e+03   1.0380700e+02   7.1141600e+02   3.8300000e-01   
1.2966250e+03   3.1078200e+02   2.4532529e+03   1.0450800e+02   7.1498300e+02   3.8400000e-01   
1.2967500e+03   3.1216700e+02   2.4463660e+03   1.0617800e+02   7.1889900e+02   3.8400000e-01   
1.2968750e+03   3.1420800e+02   2.4380139e+03   1.0848000e+02   7.2345000e+02   3.8400000e-01   
1.2970000e+03   3.1666400e+02   2.4291389e+03   1.1016100e+02   7.2804300e+02   3.8300000e-01   
1.2971250e+03   3.1926700e+02   2.4210291e+03   1.1206900e+02   7.3140800e+02   3.8200000e-01   
1.2972500e+03   3.2177100e+02   2.4166851e+03   1.1391500e+02   7.3284700e+02   3.8100000e-01   
