~VERSION INFORMATION                                    
VERS.   2.0        : LAS LOG ASCII STANDARD VERSION 2.0 
WRAP.   NO         : ONE LINE PER DEPTH STEP            
~WELL INFORMATION                                       
STRT.M   208.0000                     :                 
STOP.M   1569.1250                    :                 
STEP.M   0.1250                       :                 
NULL.    -999.25                      :                 
WELL.    Alberta Well     : Well Name       
OPER.                                 : Operator        
FLD .                                 : Field           
DATE.                                 : Date Logged     
SRVC.                                 : Service Company 
UWI .                                 : UNIQUE WELL ID  
LSD .                                 : LSD             
SEC .                                 : Section         
TWP .                                 : Township        
RGE .                                 : Range           
MER .                                 : Meridian        
LOC .                                 : Location Descrip
~PARAMETER                                              
EKB.M   977.400    : ELEVATION KB                       
EGL.M   973.3000   : GL Elevation                       
TLI.M   208.0000   : Log Run Top                        
BLI.M   1586.0000  : Log Run Base                       
~CURVE                                                  
DEPT   .M                   : 1 DEPTH                   
DTP    .usec/m              : 2 DTP                     
RHOB   .kg/m3               : 3 RHOB                    
GR     .API      UNITS      : 4 GR                      
DTS    .usec/m              : 5 DTS                     
POISSON.NO       UNITS      : 6 POISSON                 
~TOPS                                                   
#TOPS NAME          .        DEPTH:                     
BellyRiver          .    516    :                       
BasalBellyRiver     .    753    :                       
LeaPark             .    768    :                       
Colorado            .    892    :                       
MedicineHat         .    1032   :                       
BaseFishScales      .    1273   :                       
Viking              .    1307   :                       
Joli Fou            .    1372   :                       
Mannville           .    1402   :                       
MedicineRiverCoal   .    1469   :                       
Glauconitic         .    1499   :                       
TopPorosity         .    1502.5 :                       
Ostracod            .    1514.5 :                       
Ellerslie           .    1540   :                       
Pekisko             .    1554   :                       
TD                  .    1572   :                       
~A                                                      
# ...
8.4087500e+02   2.9781800e+02   2.5272000e+03   9.6995000e+01   6.0663300e+02   3.4100000e-01   
8.4100000e+02   2.9995400e+02   2.5255039e+03   9.6790000e+01   6.1155400e+02   3.4200000e-01   
8.4112500e+02   3.0090500e+02   2.5126021e+03   9.6646000e+01   6.1801000e+02   3.4500000e-01   
8.4125000e+02   3.0101300e+02   2.4975010e+03   9.6052000e+01   6.1843100e+02   3.4500000e-01   
8.4137500e+02   3.0071200e+02   2.4862490e+03   9.4810000e+01   6.1843100e+02   3.4500000e-01   
8.4150000e+02   2.9939600e+02   2.4855669e+03   9.3823000e+01   6.1536000e+02   3.4500000e-01   
8.4162500e+02   2.9685000e+02   2.4956870e+03   9.3947000e+01   6.1054400e+02   3.4500000e-01   
8.4175000e+02   2.9397900e+02   2.5107380e+03   9.5132000e+01   6.0562300e+02   3.4600000e-01   
8.4187500e+02   2.9141100e+02   2.5207070e+03   9.7074000e+01   6.0070200e+02   3.4600000e-01   
8.4200000e+02   2.8895000e+02   2.5198799e+03   9.7643000e+01   5.9424500e+02   3.4500000e-01   
8.4212500e+02   2.8648900e+02   2.5080430e+03   9.6955000e+01   5.8921900e+02   3.4500000e-01   
8.4225000e+02   2.8493400e+02   2.4926880e+03   9.5482000e+01   5.8429800e+02   3.4400000e-01   
8.4237500e+02   2.8400600e+02   2.4811450e+03   9.3490000e+01   5.8091200e+02   3.4300000e-01   
8.4250000e+02   2.8318600e+02   2.4771440e+03   9.2752000e+01   5.7763100e+02   3.4200000e-01   
8.4262500e+02   2.8296900e+02   2.4816531e+03   9.2763000e+01   5.7588500e+02   3.4100000e-01   
8.4275000e+02   2.8327100e+02   2.4957590e+03   9.3600000e+01   5.7424500e+02   3.3900000e-01   
8.4287500e+02   2.8277500e+02   2.5139529e+03   9.4167000e+01   5.7414000e+02   3.4000000e-01   
8.4300000e+02   2.8225700e+02   2.5292451e+03   9.3455000e+01   5.7414000e+02   3.4100000e-01   
8.4312500e+02   2.8245100e+02   2.5366121e+03   9.1919000e+01   5.7567500e+02   3.4100000e-01   
8.4325000e+02   2.8376600e+02   2.5357070e+03   9.1009000e+01   5.7885100e+02   3.4200000e-01   
8.4337500e+02   2.8691600e+02   2.5303650e+03   9.1555000e+01   5.8366700e+02   3.4100000e-01   
8.4350000e+02   2.9121000e+02   2.5254060e+03   9.2407000e+01   5.8858800e+02   3.3800000e-01   
8.4362500e+02   2.9541900e+02   2.5192949e+03   9.2531000e+01   5.9504500e+02   3.3600000e-01   
8.4375000e+02   2.9861500e+02   2.5106460e+03   9.1114000e+01   6.0007100e+02   3.3500000e-01   
8.4387500e+02   3.0027800e+02   2.5019529e+03   9.0879000e+01   6.0499200e+02   3.3700000e-01   
8.4400000e+02   3.0030100e+02   2.4956421e+03   9.1080000e+01   6.0991300e+02   3.4000000e-01   
8.4412500e+02   3.0019300e+02   2.4963911e+03   9.2098000e+01   6.1790500e+02   3.4600000e-01   
8.4425000e+02   2.9989100e+02   2.5014250e+03   9.2368000e+01   6.2610700e+02   3.5100000e-01   
8.4437500e+02   3.0008500e+02   2.5030701e+03   9.2106000e+01   6.3430900e+02   3.5600000e-01   
8.4450000e+02   3.0049500e+02   2.4925720e+03   9.1585000e+01   6.3944100e+02   3.5800000e-01   
8.4462500e+02   3.0060300e+02   2.4755330e+03   9.2102000e+01   6.4129100e+02   3.5900000e-01   
8.4475000e+02   3.0000000e+02   2.4635171e+03   9.2590000e+01   6.3679100e+02   3.5700000e-01   
8.4487500e+02   2.9917900e+02   2.4659180e+03   9.2713000e+01   6.2879900e+02   3.5400000e-01   
8.4500000e+02   2.9715200e+02   2.4796741e+03   9.2268000e+01   6.1752600e+02   3.4900000e-01   
8.4512500e+02   2.9439000e+02   2.4965110e+03   9.1706000e+01   6.0604400e+02   3.4600000e-01   
8.4525000e+02   2.9182100e+02   2.5075339e+03   9.2161000e+01   5.9456100e+02   3.4100000e-01   
8.4537500e+02   2.8936000e+02   2.5151221e+03   9.3134000e+01   5.8614800e+02   3.3900000e-01   
8.4550000e+02   2.8750300e+02   2.5244470e+03   9.2955000e+01   5.7948200e+02   3.3700000e-01   
8.4562500e+02   2.8707000e+02   2.5339060e+03   9.2679000e+01   5.7599100e+02   3.3500000e-01   
8.4575000e+02   2.8737200e+02   2.5368201e+03   9.2148000e+01   5.7578000e+02   3.3400000e-01   
8.4587500e+02   2.8778200e+02   2.5323440e+03   9.2302000e+01   5.7731600e+02   3.3500000e-01   
8.4600000e+02   2.8879600e+02   2.5249651e+03   9.3310000e+01   5.8049100e+02   3.3600000e-01   
8.4612500e+02   2.8942200e+02   2.5178850e+03   9.4276000e+01   5.8377200e+02   3.3700000e-01   
8.4625000e+02   2.8922900e+02   2.5138889e+03   9.4368000e+01   5.8705300e+02   3.4000000e-01   
8.4637500e+02   2.8851700e+02   2.5139060e+03   9.3695000e+01   5.8879900e+02   3.4200000e-01   
8.4650000e+02   2.8769700e+02   2.5170181e+03   9.3557000e+01   5.9043900e+02   3.4400000e-01   
8.4662500e+02   2.8687600e+02   2.5225039e+03   9.4318000e+01   5.8900900e+02   3.4500000e-01   
8.4675000e+02   2.8666000e+02   2.5300601e+03   9.5614000e+01   5.8736800e+02   3.4400000e-01   
8.4687500e+02   2.8756500e+02   2.5333491e+03   9.5784000e+01   5.8572800e+02   3.4100000e-01   
8.4700000e+02   2.8939900e+02   2.5328870e+03   9.5466000e+01   5.8562300e+02   3.3800000e-01   
8.4712500e+02   2.9175200e+02   2.5305959e+03   9.4811000e+01   5.8715800e+02   3.3600000e-01   
8.4725000e+02   2.9421200e+02   2.5286660e+03   9.5030000e+01   5.9033400e+02   3.3500000e-01   
8.4737500e+02   2.9606900e+02   2.5266470e+03   9.6008000e+01   5.9515000e+02   3.3600000e-01   
8.4750000e+02   2.9710600e+02   2.5242849e+03   9.8072000e+01   6.0007100e+02   3.3800000e-01   
8.4762500e+02   2.9732300e+02   2.5215430e+03   9.9230000e+01   6.0345700e+02   3.4000000e-01   
8.4775000e+02   2.9641700e+02   2.5204880e+03   9.9727000e+01   6.0366700e+02   3.4100000e-01   
8.4787500e+02   2.9458300e+02   2.5193301e+03   1.0060600e+02   6.0213200e+02   3.4300000e-01   
8.4800000e+02   2.9253300e+02   2.5181470e+03   1.0031900e+02   5.9742100e+02   3.4200000e-01   
8.4812500e+02   2.8987800e+02   2.5162690e+03   9.7751000e+01   5.9096500e+02   3.4200000e-01   
8.4825000e+02   2.8670600e+02   2.5151670e+03   9.4585000e+01   5.8286800e+02   3.4000000e-01   
8.4837500e+02   2.8372700e+02   2.5164121e+03   9.1155000e+01   5.7466600e+02   3.3900000e-01   
8.4850000e+02   2.8146000e+02   2.5200371e+03   8.9926000e+01   5.6646400e+02   3.3600000e-01   
8.4862500e+02   2.7971100e+02   2.5218301e+03   9.0913000e+01   5.5826200e+02   3.3200000e-01   
8.4875000e+02   2.7837300e+02   2.5235969e+03   9.2375000e+01   5.5006000e+02   3.2800000e-01   
8.4887500e+02   2.7684100e+02   2.5263879e+03   9.2421000e+01   5.4185800e+02   3.2300000e-01   
8.4900000e+02   2.7369100e+02   2.5296731e+03   9.1219000e+01   5.3212000e+02   3.2000000e-01   
8.4912500e+02   2.6849100e+02   2.5308831e+03   8.9501000e+01   5.2074300e+02   3.1900000e-01   
8.4925000e+02   2.6275000e+02   2.5339480e+03   8.7619000e+01   5.0926000e+02   3.1900000e-01   
8.4937500e+02   2.5731000e+02   2.5443789e+03   8.4027000e+01   4.9931200e+02   3.1900000e-01   
8.4950000e+02   2.5288400e+02   2.5663950e+03   7.9348000e+01   4.9100500e+02   3.1900000e-01   
8.4962500e+02   2.5119800e+02   2.5894700e+03   7.5458000e+01   4.8740900e+02   3.1900000e-01   
8.4975000e+02   2.5399900e+02   2.5975911e+03   7.4039000e+01   4.8719900e+02   3.1300000e-01   
8.4987500e+02   2.5900600e+02   2.5846780e+03   7.4627000e+01   4.9026900e+02   3.0600000e-01   
8.5000000e+02   2.6463900e+02   2.5618821e+03   7.6776000e+01   4.9508500e+02   3.0000000e-01   
8.5012500e+02   2.7068200e+02   2.5433340e+03   7.8926000e+01   5.0000700e+02   2.9300000e-01   
8.5025000e+02   2.7592800e+02   2.5353210e+03   8.0448000e+01   5.0492800e+02   2.8700000e-01   
8.5037500e+02   2.7813300e+02   2.5314041e+03   8.1703000e+01   5.0984900e+02   2.8800000e-01   
8.5050000e+02   2.7845800e+02   2.5282681e+03   8.2711000e+01   5.1323500e+02   2.9100000e-01   
8.5062500e+02   2.7815600e+02   2.5296321e+03   8.3414000e+01   5.1651600e+02   2.9600000e-01   
8.5075000e+02   2.7744400e+02   2.5378879e+03   8.3788000e+01   5.2133200e+02   3.0200000e-01   
8.5087500e+02   2.7722800e+02   2.5549041e+03   8.2814000e+01   5.2778800e+02   3.0900000e-01   
8.5100000e+02   2.7752900e+02   2.5750459e+03   8.0462000e+01   5.3588500e+02   3.1700000e-01   
8.5112500e+02   2.7854300e+02   2.5901670e+03   7.8008000e+01   5.4562200e+02   3.2400000e-01   
