~VERSION INFORMATION                                    
VERS.   2.0        : LAS LOG ASCII STANDARD VERSION 2.0 
WRAP.   NO         : ONE LINE PER DEPTH STEP            
~WELL INFORMATION                                       
STRT.M   208.0000                     :                 
STOP.M   1569.1250                    :                 
STEP.M   0.1250                       :                 
NULL.    -999.25                      :                 
WELL.    Alberta Well     : Well Name       
OPER.                                 : Operator        
FLD .                                 : Field           
DATE.                                 : Date Logged     
SRVC.                                 : Service Company 
UWI .                                 : UNIQUE WELL ID  
LSD .                                 : LSD             
SEC .                                 : Section         
TWP .                                 : Township        
RGE .                                 : Range           
MER .                                 : Meridian        
LOC .                                 : Location Descrip
~PARAMETER                                              
EKB.M   977.400    : ELEVATION KB                       
EGL.M   973.3000   : GL Elevation                       
TLI.M   208.0000   : Log Run Top                        
BLI.M   1586.0000  : Log Run Base                       
~CURVE                                                  
DEPT   .M                   : 1 DEPTH                   
DTP    .usec/m              : 2 DTP                     
RHOB   .kg/m3               : 3 RHOB                    
GR     .API      UNITS      : 4 GR                      
DTS    .usec/m              : 5 DTS                     
POISSON.NO       UNITS      : 6 POISSON                 
~TOPS                                                   
#TOPS NAME          .        DEPTH:                     
BellyRiver          .    516    :                       
BasalBellyRiver     .    753    :                       
LeaPark             .    768    :                       
Colorado            .    892    :                       
MedicineHat         .    1032   :                       
BaseFishScales      .    1273   :                       
Viking              .    1307   :                       
Joli Fou            .    1372   :                       
Mannville           .    1402   :                       
MedicineRiverCoal   .    1469   :                       
Glauconitic         .    1499   :                       
TopPorosity         .    1502.5 :                       
Ostracod            .    1514.5 :                       
Ellerslie           .    1540   :                       
Pekisko             .    1554   :                       
TD                  .    1572   :                       
~A                                                      
# ...
5.7112500e+02   3.0975700e+02   2.4172549e+03   6.3661000e+01   6.4150200e+02   3.4800000e-01   
5.7125000e+02   3.0770600e+02   2.4295300e+03   6.2770000e+01   6.3986100e+02   3.5000000e-01   
5.7137500e+02   3.0535400e+02   2.4409031e+03   6.0924000e+01   6.3668500e+02   3.5100000e-01   
5.7150000e+02   3.0319500e+02   2.4472051e+03   5.8923000e+01   6.3340500e+02   3.5100000e-01   
5.7162500e+02   3.0174800e+02   2.4466689e+03   5.8156000e+01   6.3319400e+02   3.5300000e-01   
5.7175000e+02   3.0142400e+02   2.4415149e+03   5.9554000e+01   6.3780000e+02   3.5600000e-01   
5.7187500e+02   3.0232900e+02   2.4361750e+03   6.2129000e+01   6.4425700e+02   3.5900000e-01   
5.7200000e+02   3.0446500e+02   2.4343669e+03   6.4328000e+01   6.5235400e+02   3.6100000e-01   
5.7212500e+02   3.0752900e+02   2.4372971e+03   6.6409000e+01   6.6055600e+02   3.6200000e-01   
5.7225000e+02   3.1081000e+02   2.4427759e+03   6.8254000e+01   6.6722200e+02   3.6100000e-01   
5.7237500e+02   3.1318500e+02   2.4465049e+03   7.0148000e+01   6.7071300e+02   3.6100000e-01   
5.7250000e+02   3.1402800e+02   2.4470681e+03   7.0919000e+01   6.7092400e+02   3.6000000e-01   
5.7262500e+02   3.1353300e+02   2.4462051e+03   7.0799000e+01   6.6785300e+02   3.5900000e-01   
5.7275000e+02   3.1210900e+02   2.4463350e+03   6.9854000e+01   6.6303700e+02   3.5800000e-01   
5.7287500e+02   3.1016700e+02   2.4479580e+03   6.8298000e+01   6.5658100e+02   3.5600000e-01   
5.7300000e+02   3.0811600e+02   2.4476809e+03   6.7049000e+01   6.4848400e+02   3.5400000e-01   
5.7312500e+02   3.0606600e+02   2.4432229e+03   6.6128000e+01   6.4181700e+02   3.5300000e-01   
5.7325000e+02   3.0401500e+02   2.4367800e+03   6.4799000e+01   6.3525500e+02   3.5100000e-01   
5.7337500e+02   3.0196500e+02   2.4331841e+03   6.3671000e+01   6.2869400e+02   3.5000000e-01   
5.7350000e+02   3.0021600e+02   2.4343291e+03   6.3017000e+01   6.2366700e+02   3.4900000e-01   
5.7362500e+02   2.9887800e+02   2.4406970e+03   6.2697000e+01   6.2028100e+02   3.4900000e-01   
5.7375000e+02   2.9825100e+02   2.4491880e+03   6.3144000e+01   6.1853600e+02   3.4900000e-01   
5.7387500e+02   2.9874600e+02   2.4549741e+03   6.4094000e+01   6.1996600e+02   3.4900000e-01   
5.7400000e+02   3.0047200e+02   2.4543750e+03   6.4906000e+01   6.2467700e+02   3.4900000e-01   
5.7412500e+02   3.0282400e+02   2.4475850e+03   6.5616000e+01   6.3113300e+02   3.5000000e-01   
5.7425000e+02   3.0528500e+02   2.4372610e+03   6.6606000e+01   6.3769500e+02   3.5100000e-01   
5.7437500e+02   3.0744400e+02   2.4297949e+03   6.7864000e+01   6.4272100e+02   3.5200000e-01   
5.7450000e+02   3.0889100e+02   2.4296289e+03   6.8479000e+01   6.4610700e+02   3.5200000e-01   
5.7462500e+02   3.0951700e+02   2.4361689e+03   6.9179000e+01   6.4785300e+02   3.5200000e-01   
5.7475000e+02   3.0932400e+02   2.4445601e+03   6.9500000e+01   6.4642300e+02   3.5200000e-01   
5.7487500e+02   3.0891400e+02   2.4515581e+03   6.9034000e+01   6.4324700e+02   3.5000000e-01   
5.7500000e+02   3.0971100e+02   2.4615950e+03   6.8303000e+01   6.3996600e+02   3.4700000e-01   
5.7512500e+02   3.1335600e+02   2.4834819e+03   6.6252000e+01   6.4129100e+02   3.4300000e-01   
5.7525000e+02   3.1907400e+02   2.5155229e+03   6.2159000e+01   6.5367900e+02   3.4400000e-01   
5.7537500e+02   3.2613100e+02   2.5260210e+03   5.9289000e+01   6.8061900e+02   3.5100000e-01   
5.7550000e+02   3.3472000e+02   2.4813191e+03   5.8885000e+01   7.2078800e+02   3.6300000e-01   
5.7562500e+02   3.4404400e+02   2.4334470e+03   5.9925000e+01   7.6947500e+02   3.7500000e-01   
5.7575000e+02   3.5226900e+02   2.4277129e+03   6.0906000e+01   8.2022200e+02   3.8700000e-01   
5.7587500e+02   3.5915500e+02   2.4625259e+03   6.0575000e+01   8.6339800e+02   3.9500000e-01   
5.7600000e+02   3.6269900e+02   2.5027439e+03   5.9140000e+01   8.9223100e+02   4.0100000e-01   
5.7612500e+02   3.6274500e+02   2.5066870e+03   5.8864000e+01   9.0783500e+02   4.0500000e-01   
5.7625000e+02   3.5981200e+02   2.4570420e+03   5.9980000e+01   9.1338700e+02   4.0800000e-01   
5.7637500e+02   3.5431000e+02   2.3945659e+03   6.1731000e+01   9.0756200e+02   4.1000000e-01   
5.7650000e+02   3.4695100e+02   2.3527681e+03   6.2430000e+01   8.9485900e+02   4.1200000e-01   
5.7662500e+02   3.4097000e+02   2.3380281e+03   6.2607000e+01   8.7713000e+02   4.1100000e-01   
5.7675000e+02   3.3594100e+02   2.3414729e+03   6.2949000e+01   8.5601500e+02   4.0900000e-01   
5.7687500e+02   3.3071800e+02   2.3560210e+03   6.4364000e+01   8.3161900e+02   4.0600000e-01   
5.7700000e+02   3.2599000e+02   2.3768821e+03   6.5738000e+01   8.0701300e+02   4.0300000e-01   
5.7712500e+02   3.2238500e+02   2.3924509e+03   6.7110000e+01   7.8240700e+02   3.9800000e-01   
5.7725000e+02   3.2000900e+02   2.3977070e+03   6.7320000e+01   7.6240700e+02   3.9300000e-01   
5.7737500e+02   3.1886400e+02   2.3990291e+03   6.6313000e+01   7.4425800e+02   3.8800000e-01   
5.7750000e+02   3.1864800e+02   2.4027100e+03   6.4872000e+01   7.2928400e+02   3.8200000e-01   
5.7762500e+02   3.1834600e+02   2.4083301e+03   6.4109000e+01   7.1605500e+02   3.7700000e-01   
5.7775000e+02   3.1672900e+02   2.4124961e+03   6.3699000e+01   7.0446800e+02   3.7300000e-01   
5.7787500e+02   3.1377300e+02   2.4145391e+03   6.3894000e+01   6.9298500e+02   3.7100000e-01   
5.7800000e+02   3.1049200e+02   2.4155359e+03   6.3199000e+01   6.8150200e+02   3.6900000e-01   
5.7812500e+02   3.0721100e+02   2.4131970e+03   6.1423000e+01   6.7309000e+02   3.6800000e-01   
5.7825000e+02   3.0453400e+02   2.4012959e+03   5.8898000e+01   6.7409900e+02   3.7200000e-01   
5.7837500e+02   3.0207300e+02   2.3762390e+03   5.6549000e+01   6.8802200e+02   3.8100000e-01   
5.7850000e+02   3.0082000e+02   2.3324370e+03   5.5007000e+01   7.1199700e+02   3.9100000e-01   
5.7862500e+02   3.0271600e+02   2.2670081e+03   5.5279000e+01   7.5195600e+02   4.0300000e-01   
5.7875000e+02   3.1117000e+02   2.1900869e+03   5.6121000e+01   8.0064200e+02   4.1100000e-01   
5.7887500e+02   3.2691000e+02   2.1346670e+03   5.6860000e+01   8.5138900e+02   4.1400000e-01   
5.7900000e+02   3.4605300e+02   2.1187419e+03   5.7035000e+01   8.9149500e+02   4.1100000e-01   
5.7912500e+02   3.6483200e+02   2.1403950e+03   5.7356000e+01   9.1858200e+02   4.0600000e-01   
5.7925000e+02   3.7876000e+02   2.1890010e+03   5.8892000e+01   9.2947600e+02   4.0000000e-01   
5.7937500e+02   3.8095200e+02   2.2515759e+03   6.1581000e+01   9.2703600e+02   3.9800000e-01   
5.7950000e+02   3.7302700e+02   2.3131809e+03   6.4241000e+01   9.0840300e+02   3.9900000e-01   
5.7962500e+02   3.5975700e+02   2.3662339e+03   6.6610000e+01   8.7797100e+02   3.9900000e-01   
5.7975000e+02   3.4268700e+02   2.4027849e+03   6.7737000e+01   8.4373300e+02   4.0100000e-01   
5.7987500e+02   3.2524600e+02   2.4192190e+03   6.8218000e+01   8.0621400e+02   4.0300000e-01   
5.8000000e+02   3.1224700e+02   2.4287170e+03   6.8213000e+01   7.6541400e+02   4.0000000e-01   
5.8012500e+02   3.0136800e+02   2.4373530e+03   6.8126000e+01   7.2901000e+02   3.9700000e-01   
5.8025000e+02   2.9342200e+02   2.4446560e+03   6.7633000e+01   7.0366800e+02   3.9500000e-01   
5.8037500e+02   2.9007200e+02   2.4434170e+03   6.7255000e+01   6.8827400e+02   3.9200000e-01   
5.8050000e+02   2.9073800e+02   2.4315471e+03   6.6374000e+01   6.8425700e+02   3.9000000e-01   
5.8062500e+02   2.9479300e+02   2.4084290e+03   6.5384000e+01   6.9479400e+02   3.9000000e-01   
5.8075000e+02   2.9880900e+02   2.3543799e+03   6.3072000e+01   7.1395300e+02   3.9400000e-01   
5.8087500e+02   3.0491400e+02   2.2216641e+03   5.9138000e+01   7.4438500e+02   3.9900000e-01   
5.8100000e+02   3.1309300e+02   2.0078521e+03   5.4377000e+01   7.8015800e+02   4.0400000e-01   
5.8112500e+02   3.2910000e+02   1.8124650e+03   5.1008000e+01   8.3351900e+02   4.0800000e-01   
5.8125000e+02   3.5455000e+02   1.6973810e+03   5.1564000e+01   8.9996000e+02   4.0800000e-01   
5.8137500e+02   3.8273900e+02   1.6712629e+03   5.6358000e+01   9.7028700e+02   4.0800000e-01   
