~VERSION INFORMATION                                    
VERS.   2.0        : LAS LOG ASCII STANDARD VERSION 2.0 
WRAP.   NO         : ONE LINE PER DEPTH STEP            
~WELL INFORMATION                                       
STRT.M   208.0000                     :                 
STOP.M   1569.1250                    :                 
STEP.M   0.1250                       :                 
NULL.    -999.25                      :                 
WELL.    Alberta Well     : Well Name       
OPER.                                 : Operator        
FLD .                                 : Field           
DATE.                                 : Date Logged     
SRVC.                                 : Service Company 
UWI .                                 : UNIQUE WELL ID  
LSD .                                 : LSD             
SEC .                                 : Section         
TWP .                                 : Township        
RGE .                                 : Range           
MER .                                 : Meridian        
LOC .                                 : Location Descrip
~PARAMETER                                              
EKB.M   977.400    : ELEVATION KB                       
EGL.M   973.3000   : GL Elevation                       
TLI.M   208.0000   : Log Run Top                        
BLI.M   1586.0000  : Log Run Base                       
~CURVE                                                  
DEPT   .M                   : 1 DEPTH                   
DTP    .usec/m              : 2 DTP                     
RHOB   .kg/m3               : 3 RHOB                    
GR     .API      UNITS      : 4 GR                      
DTS    .usec/m              : 5 DTS                     
POISSON.NO       UNITS      : 6 POISSON                 
~TOPS                                                   
#TOPS NAME          .        DEPTH:                     
BellyRiver          .    516    :                       
BasalBellyRiver     .    753    :                       
LeaPark             .    768    :                       
Colorado            .    892    :                       
MedicineHat         .    1032   :                       
BaseFishScales      .    1273   :                       
Viking              .    1307   :                       
Joli Fou            .    1372   :                       
Mannville           .    1402   :                       
MedicineRiverCoal   .    1469   :                       
Glauconitic         .    1499   :                       
TopPorosity         .    1502.5 :                       
Ostracod            .    1514.5 :                       
Ellerslie           .    1540   :                       
Pekisko             .    1554   :                       
TD                  .    1572   :                       
~A                                                      
# ...
1.5567500e+03   1.6130100e+02   2.6997859e+03   2.9637000e+01   3.1167600e+02   3.1700000e-01   
1.5568750e+03   1.5925000e+02   2.6902310e+03   2.6548000e+01   3.1167600e+02   3.2300000e-01   
1.5570000e+03   1.5750100e+02   2.6850320e+03   2.3344000e+01   3.1167600e+02   3.2900000e-01   
1.5571250e+03   1.5646500e+02   2.6867229e+03   2.1488000e+01   3.1321100e+02   3.3400000e-01   
1.5572500e+03   1.5594600e+02   2.6952029e+03   2.0858000e+01   3.1485200e+02   3.3700000e-01   
1.5573750e+03   1.5614000e+02   2.7062539e+03   2.0155000e+01   3.1495700e+02   3.3700000e-01   
1.5575000e+03   1.5726200e+02   2.7103201e+03   1.7764000e+01   3.1495700e+02   3.3400000e-01   
1.5576250e+03   1.5808200e+02   2.7012820e+03   1.7306000e+01   3.1342200e+02   3.2900000e-01   
1.5577500e+03   1.5890200e+02   2.6905349e+03   1.7616000e+01   3.1024600e+02   3.2200000e-01   
1.5578750e+03   1.5942100e+02   2.6830439e+03   1.8233000e+01   3.0850000e+02   3.1800000e-01   
1.5580000e+03   1.5983100e+02   2.6816101e+03   1.8538000e+01   3.0686000e+02   3.1400000e-01   
1.5581250e+03   1.5993900e+02   2.6845869e+03   1.8646000e+01   3.0522000e+02   3.1100000e-01   
1.5582500e+03   1.5993900e+02   2.6885459e+03   1.8527000e+01   3.0511400e+02   3.1100000e-01   
1.5583750e+03   1.6024100e+02   2.6918379e+03   1.8199000e+01   3.0972000e+02   3.1700000e-01   
1.5585000e+03   1.6095300e+02   2.6934971e+03   1.7753000e+01   3.1310600e+02   3.2000000e-01   
1.5586250e+03   1.6177300e+02   2.6927310e+03   1.7059000e+01   3.1638700e+02   3.2300000e-01   
1.5587500e+03   1.6259300e+02   2.6911289e+03   1.6356000e+01   3.1966800e+02   3.2600000e-01   
1.5588750e+03   1.6341300e+02   2.6893811e+03   1.5856000e+01   3.2141300e+02   3.2600000e-01   
1.5590000e+03   1.6393200e+02   2.6861621e+03   1.5531000e+01   3.1998300e+02   3.2200000e-01   
1.5591250e+03   1.6404000e+02   2.6810459e+03   1.5362000e+01   3.1834300e+02   3.1900000e-01   
1.5592500e+03   1.6404000e+02   2.6763860e+03   1.5517000e+01   3.1670200e+02   3.1700000e-01   
1.5593750e+03   1.6404000e+02   2.6742390e+03   1.5688000e+01   3.1506200e+02   3.1400000e-01   
1.5595000e+03   1.6404000e+02   2.6747100e+03   1.5762000e+01   3.1342200e+02   3.1100000e-01   
1.5596250e+03   1.6404000e+02   2.6767390e+03   1.5734000e+01   3.1178100e+02   3.0900000e-01   
1.5597500e+03   1.6404000e+02   2.6802820e+03   1.5988000e+01   3.1321100e+02   3.1100000e-01   
1.5598750e+03   1.6404000e+02   2.6849351e+03   1.6742000e+01   3.1485200e+02   3.1400000e-01   
1.5600000e+03   1.6434200e+02   2.6894431e+03   1.7649000e+01   3.1649200e+02   3.1500000e-01   
1.5601250e+03   1.6475200e+02   2.6934331e+03   1.8218000e+01   3.1966800e+02   3.1900000e-01   
1.5602500e+03   1.6486000e+02   2.6962549e+03   1.8483000e+01   3.2294900e+02   3.2400000e-01   
1.5603750e+03   1.6486000e+02   2.6973130e+03   1.8770000e+01   3.2622900e+02   3.2900000e-01   
1.5605000e+03   1.6455800e+02   2.6969231e+03   1.9246000e+01   3.3279100e+02   3.3800000e-01   
1.5606250e+03   1.6445000e+02   2.6942771e+03   1.8692000e+01   3.3453600e+02   3.4100000e-01   
1.5607500e+03   1.6505400e+02   2.6873579e+03   1.7907000e+01   3.3771200e+02   3.4300000e-01   
1.5608750e+03   1.6587400e+02   2.6766631e+03   1.7261000e+01   3.3945800e+02   3.4300000e-01   
1.5610000e+03   1.6669400e+02   2.6665710e+03   1.7179000e+01   3.4263300e+02   3.4500000e-01   
1.5611250e+03   1.6751400e+02   2.6614319e+03   1.7412000e+01   3.4591400e+02   3.4700000e-01   
1.5612500e+03   1.6833500e+02   2.6621980e+03   1.7593000e+01   3.4919500e+02   3.4900000e-01   
1.5613750e+03   1.6915500e+02   2.6666760e+03   1.7683000e+01   3.5247600e+02   3.5000000e-01   
1.5615000e+03   1.7027700e+02   2.6715081e+03   1.8031000e+01   3.5575700e+02   3.5100000e-01   
1.5616250e+03   1.7150700e+02   2.6752800e+03   1.8544000e+01   3.5903700e+02   3.5200000e-01   
1.5617500e+03   1.7243600e+02   2.6783191e+03   1.9118000e+01   3.6538900e+02   3.5700000e-01   
1.5618750e+03   1.7295400e+02   2.6798230e+03   1.9469000e+01   3.7348600e+02   3.6400000e-01   
1.5620000e+03   1.7276000e+02   2.6785601e+03   1.9443000e+01   3.8168800e+02   3.7100000e-01   
1.5621250e+03   1.7144500e+02   2.6746699e+03   1.9076000e+01   3.8947100e+02   3.8000000e-01   
1.5622500e+03   1.6980400e+02   2.6700310e+03   1.8502000e+01   3.9877200e+02   3.8900000e-01   
1.5623750e+03   1.6846600e+02   2.6668779e+03   1.7909000e+01   4.0819000e+02   3.9700000e-01   
1.5625000e+03   1.6723600e+02   2.6660020e+03   1.7525000e+01   4.1915500e+02   4.0500000e-01   
1.5626250e+03   1.6630700e+02   2.6645181e+03   1.7316000e+01   4.2922700e+02   4.1200000e-01   
1.5627500e+03   1.6609000e+02   2.6593369e+03   1.7239000e+01   4.4018500e+02   4.1700000e-01   
1.5628750e+03   1.6609000e+02   2.6525010e+03   1.7117000e+01   4.4866300e+02   4.2100000e-01   
1.5630000e+03   1.6639200e+02   2.6483840e+03   1.6776000e+01   4.5160700e+02   4.2100000e-01   
1.5631250e+03   1.6680200e+02   2.6489629e+03   1.6390000e+01   4.4882400e+02   4.2000000e-01   
1.5632500e+03   1.6721300e+02   2.6528081e+03   1.6264000e+01   4.4286100e+02   4.1700000e-01   
1.5633750e+03   1.6792400e+02   2.6556880e+03   1.6289000e+01   4.2796200e+02   4.0900000e-01   
1.5635000e+03   1.6926300e+02   2.6527910e+03   1.6494000e+01   3.9496100e+02   3.8800000e-01   
1.5636250e+03   1.6967300e+02   2.6521040e+03   1.6577000e+01   3.8042700e+02   3.7600000e-01   
1.5637500e+03   1.6978100e+02   2.6533311e+03   1.6666000e+01   3.6668700e+02   3.6400000e-01   
1.5638750e+03   1.6948000e+02   2.6555630e+03   1.6887000e+01   3.6120300e+02   3.5900000e-01   
1.5640000e+03   1.6876800e+02   2.6573899e+03   1.7225000e+01   3.5628200e+02   3.5500000e-01   
1.5641250e+03   1.6764600e+02   2.6592319e+03   1.7642000e+01   3.4982600e+02   3.5100000e-01   
1.5642500e+03   1.6641500e+02   2.6633789e+03   1.7916000e+01   3.4326400e+02   3.4600000e-01   
1.5643750e+03   1.6548700e+02   2.6719089e+03   1.7820000e+01   3.3823800e+02   3.4300000e-01   
1.5645000e+03   1.6466700e+02   2.6830000e+03   1.7311000e+01   3.3178100e+02   3.3700000e-01   
1.5646250e+03   1.6414800e+02   2.6924790e+03   1.6571000e+01   3.2675500e+02   3.3100000e-01   
1.5647500e+03   1.6373800e+02   2.6974561e+03   1.5858000e+01   3.2644000e+02   3.3200000e-01   
1.5648750e+03   1.6332800e+02   2.6974319e+03   1.5412000e+01   3.3258100e+02   3.4100000e-01   
1.5650000e+03   1.6291800e+02   2.6948081e+03   1.5305000e+01   3.3914200e+02   3.5000000e-01   
1.5651250e+03   1.6250800e+02   2.6920110e+03   1.5502000e+01   3.4416900e+02   3.5700000e-01   
1.5652500e+03   1.6209800e+02   2.6899509e+03   1.5748000e+01   3.4909000e+02   3.6300000e-01   
1.5653750e+03   1.6199000e+02   2.6887739e+03   1.6040000e+01   3.4940500e+02   3.6300000e-01   
1.5655000e+03   1.6199000e+02   2.6879839e+03   1.6556000e+01   3.4940500e+02   3.6300000e-01   
1.5656250e+03   1.6199000e+02   2.6853621e+03   1.6975000e+01   3.5094000e+02   3.6500000e-01   
1.5657500e+03   1.6199000e+02   2.6797151e+03   1.7029000e+01   3.5411600e+02   3.6800000e-01   
1.5658750e+03   1.6199000e+02   2.6737380e+03   1.6599000e+01   3.5739700e+02   3.7100000e-01   
1.5660000e+03   1.6199000e+02   2.6719319e+03   1.5712000e+01   3.6221300e+02   3.7500000e-01   
1.5661250e+03   1.6199000e+02   2.6768030e+03   1.4858000e+01   3.6252800e+02   3.7500000e-01   
1.5662500e+03   1.6199000e+02   2.6860471e+03   1.4782000e+01   3.6099300e+02   3.7400000e-01   
1.5663750e+03   1.6199000e+02   2.6940640e+03   1.5421000e+01   3.6088800e+02   3.7400000e-01   
1.5665000e+03   1.6199000e+02   2.6995359e+03   1.7234000e+01   3.6088800e+02   3.7400000e-01   
1.5666250e+03   1.6199000e+02   2.7042710e+03   1.7544000e+01   3.5935300e+02   3.7200000e-01   
1.5667500e+03   1.6199000e+02   2.7108970e+03   1.7238000e+01   3.5771200e+02   3.7100000e-01   
1.5668750e+03   1.6199000e+02   2.7147009e+03   1.6749000e+01   3.5607200e+02   3.7000000e-01   
1.5670000e+03   1.6199000e+02   2.7135720e+03   1.6564000e+01   3.5443200e+02   3.6800000e-01   
