~VERSION INFORMATION                                    
VERS.   2.0        : LAS LOG ASCII STANDARD VERSION 2.0 
WRAP.   NO         : ONE LINE PER DEPTH STEP            
~WELL INFORMATION                                       
STRT.M   208.0000                     :                 
STOP.M   1569.1250                    :                 
STEP.M   0.1250                       :                 
NULL.    -999.25                      :                 
WELL.    Alberta Well     : Well Name       
OPER.                                 : Operator        
FLD .                                 : Field           
DATE.                                 : Date Logged     
SRVC.                                 : Service Company 
UWI .                                 : UNIQUE WELL ID  
LSD .                                 : LSD             
SEC .                                 : Section         
TWP .                                 : Township        
RGE .                                 : Range           
MER .                                 : Meridian        
LOC .                                 : Location Descrip
~PARAMETER                                              
EKB.M   977.400    : ELEVATION KB                       
EGL.M   973.3000   : GL Elevation                       
TLI.M   208.0000   : Log Run Top                        
BLI.M   1586.0000  : Log Run Base                       
~CURVE                                                  
DEPT   .M                   : 1 DEPTH                   
DTP    .usec/m              : 2 DTP                     
RHOB   .kg/m3               : 3 RHOB                    
GR     .API      UNITS      : 4 GR                      
DTS    .usec/m              : 5 DTS                     
POISSON.NO       UNITS      : 6 POISSON                 
~TOPS                                                   
#TOPS NAME          .        DEPTH:                     
BellyRiver          .    516    :                       
BasalBellyRiver     .    753    :                       
LeaPark             .    768    :                       
Colorado            .    892    :                       
MedicineHat         .    1032   :                       
BaseFishScales      .    1273   :                       
Viking              .    1307   :                       
Joli Fou            .    1372   :                       
Mannville           .    1402   :                       
MedicineRiverCoal   .    1469   :                       
Glauconitic         .    1499   :                       
TopPorosity         .    1502.5 :                       
Ostracod            .    1514.5 :                       
Ellerslie           .    1540   :                       
Pekisko             .    1554   :                       
TD                  .    1572   :                       
~A                                                      
# ...
1.4633750e+03   2.5322500e+02   2.5244839e+03   7.5491000e+01   5.0984900e+02   3.3600000e-01   
1.4635000e+03   2.5434700e+02   2.5403210e+03   7.6903000e+01   5.1477000e+02   3.3900000e-01   
1.4636250e+03   2.5557800e+02   2.5666951e+03   7.9535000e+01   5.2122700e+02   3.4200000e-01   
1.4637500e+03   2.5680800e+02   2.5859080e+03   8.2722000e+01   5.2778800e+02   3.4500000e-01   
1.4638750e+03   2.5834000e+02   2.5834919e+03   8.5932000e+01   5.3281500e+02   3.4600000e-01   
1.4640000e+03   2.5967900e+02   2.5576150e+03   8.7553000e+01   5.3773600e+02   3.4800000e-01   
1.4641250e+03   2.6090900e+02   2.5254170e+03   8.8367000e+01   5.4265700e+02   3.5000000e-01   
1.4642500e+03   2.6183700e+02   2.5037710e+03   8.8198000e+01   5.4604300e+02   3.5100000e-01   
1.4643750e+03   2.6265800e+02   2.4994231e+03   8.7650000e+01   5.4778900e+02   3.5100000e-01   
1.4645000e+03   2.6287400e+02   2.5049470e+03   8.6636000e+01   5.4789400e+02   3.5000000e-01   
1.4646250e+03   2.6216200e+02   2.5165149e+03   8.6174000e+01   5.4471800e+02   3.4900000e-01   
1.4647500e+03   2.6205400e+02   2.5152710e+03   8.6709000e+01   5.4307800e+02   3.4800000e-01   
1.4648750e+03   2.6205400e+02   2.5097451e+03   8.7632000e+01   5.4143700e+02   3.4700000e-01   
1.4650000e+03   2.6205400e+02   2.5042600e+03   8.8281000e+01   5.3979700e+02   3.4600000e-01   
1.4651250e+03   2.6235600e+02   2.5020049e+03   8.8326000e+01   5.3815600e+02   3.4400000e-01   
1.4652500e+03   2.6246400e+02   2.5045640e+03   8.8455000e+01   5.3651600e+02   3.4300000e-01   
1.4653750e+03   2.6246400e+02   2.5129661e+03   8.9090000e+01   5.3487500e+02   3.4100000e-01   
1.4655000e+03   2.6216200e+02   2.5244451e+03   8.9446000e+01   5.3323500e+02   3.4100000e-01   
1.4656250e+03   2.6145000e+02   2.5301169e+03   9.0335000e+01   5.3313000e+02   3.4200000e-01   
1.4657500e+03   2.6063000e+02   2.5254390e+03   9.1050000e+01   5.3159500e+02   3.4200000e-01   
1.4658750e+03   2.5981000e+02   2.5168081e+03   9.1315000e+01   5.2995400e+02   3.4200000e-01   
1.4660000e+03   2.5899000e+02   2.5165000e+03   9.1387000e+01   5.2984900e+02   3.4300000e-01   
1.4661250e+03   2.5816900e+02   2.5303589e+03   9.0101000e+01   5.3138500e+02   3.4600000e-01   
1.4662500e+03   2.6066900e+02   2.5569900e+03   8.7935000e+01   5.4837800e+02   3.5400000e-01   
1.4663750e+03   2.6013500e+02   2.5820161e+03   8.5075000e+01   5.7870400e+02   3.7300000e-01   
1.4665000e+03   2.6381900e+02   2.5700620e+03   8.0952000e+01   6.2368900e+02   3.9100000e-01   
1.4666250e+03   2.7325400e+02   2.4399829e+03   7.3588000e+01   6.9111400e+02   4.0700000e-01   
1.4667500e+03   2.9016700e+02   2.1499360e+03   6.4954000e+01   7.6615200e+02   4.1600000e-01   
1.4668750e+03   3.1211600e+02   1.8544080e+03   5.5692000e+01   8.2472300e+02   4.1600000e-01   
1.4670000e+03   3.3870400e+02   1.6394750e+03   4.8947000e+01   8.5910700e+02   4.0800000e-01   
1.4671250e+03   3.7361200e+02   1.5545280e+03   5.2295000e+01   8.4013700e+02   3.7700000e-01   
1.4672500e+03   3.7714300e+02   1.6438220e+03   6.3218000e+01   7.9832700e+02   3.5600000e-01   
1.4673750e+03   3.7004800e+02   1.7750310e+03   7.5385000e+01   7.5260600e+02   3.4100000e-01   
1.4675000e+03   3.5990400e+02   1.8962740e+03   8.4333000e+01   7.1895700e+02   3.3300000e-01   
1.4676250e+03   3.5085900e+02   1.9643240e+03   8.6771000e+01   6.9996700e+02   3.3200000e-01   
1.4677500e+03   3.4436000e+02   2.0033669e+03   8.4284000e+01   6.9574000e+02   3.3800000e-01   
1.4678750e+03   3.4103300e+02   2.0443450e+03   7.9895000e+01   6.9860000e+02   3.4400000e-01   
1.4680000e+03   3.4068500e+02   2.0859851e+03   7.8203000e+01   7.0648700e+02   3.4900000e-01   
1.4681250e+03   3.4290600e+02   2.1121340e+03   7.7334000e+01   7.2083000e+02   3.5400000e-01   
1.4682500e+03   3.4788900e+02   2.1124851e+03   7.7534000e+01   7.5708700e+02   3.6600000e-01   
1.4683750e+03   3.5393200e+02   2.0817900e+03   7.7978000e+01   8.0095800e+02   3.7900000e-01   
1.4685000e+03   3.6098900e+02   2.0060980e+03   7.8371000e+01   8.4524800e+02   3.8800000e-01   
1.4686250e+03   3.6927700e+02   1.8863850e+03   7.6431000e+01   8.8800400e+02   3.9500000e-01   
1.4687500e+03   3.7788900e+02   1.7275750e+03   7.0056000e+01   9.3065400e+02   4.0100000e-01   
1.4688750e+03   3.8499200e+02   1.5606500e+03   5.8329000e+01   9.4874000e+02   4.0100000e-01   
1.4690000e+03   3.9125200e+02   1.4200020e+03   4.3808000e+01   9.5900300e+02   4.0000000e-01   
1.4691250e+03   3.9710100e+02   1.3231899e+03   3.0334000e+01   9.6731000e+02   3.9900000e-01   
1.4692500e+03   4.0163500e+02   1.2717080e+03   2.0688000e+01   9.8318900e+02   4.0000000e-01   
1.4693750e+03   4.0513300e+02   1.2547020e+03   1.5575000e+01   9.9498700e+02   4.0100000e-01   
1.4695000e+03   4.0781000e+02   1.2522271e+03   1.3293000e+01   1.0064700e+03   4.0200000e-01   
1.4696250e+03   4.1070400e+02   1.2561290e+03   1.3280000e+01   1.0073110e+03   4.0000000e-01   
1.4697500e+03   4.1122200e+02   1.2651801e+03   1.4437000e+01   9.9492300e+02   3.9700000e-01   
1.4698750e+03   4.1042500e+02   1.2754650e+03   1.5667000e+01   9.6030600e+02   3.8800000e-01   
1.4700000e+03   4.0798700e+02   1.2848459e+03   1.8258000e+01   9.2114700e+02   3.7800000e-01   
1.4701250e+03   4.0240000e+02   1.3100930e+03   2.2657000e+01   8.7410100e+02   3.6600000e-01   
1.4702500e+03   3.9433000e+02   1.3775450e+03   3.0387000e+01   8.2038800e+02   3.5000000e-01   
1.4703750e+03   3.8300100e+02   1.5117300e+03   4.1431000e+01   7.6164900e+02   3.3100000e-01   
1.4705000e+03   3.6828400e+02   1.7252360e+03   5.5321000e+01   7.1334200e+02   3.1800000e-01   
1.4706250e+03   3.5058700e+02   2.0003521e+03   6.9943000e+01   6.6577000e+02   3.0800000e-01   
1.4707500e+03   3.3424500e+02   2.2504419e+03   8.3958000e+01   6.2894600e+02   3.0300000e-01   
1.4708750e+03   3.2017100e+02   2.3823191e+03   9.4705000e+01   6.0053300e+02   3.0100000e-01   
1.4710000e+03   3.1056100e+02   2.4167070e+03   1.0093000e+02   5.8032300e+02   2.9900000e-01   
1.4711250e+03   3.0130200e+02   2.4400471e+03   1.0421600e+02   5.6063800e+02   2.9700000e-01   
1.4712500e+03   2.9049600e+02   2.4858979e+03   1.0651800e+02   5.4095300e+02   2.9700000e-01   
1.4713750e+03   2.7877900e+02   2.5427119e+03   1.0914700e+02   5.2740900e+02   3.0600000e-01   
1.4715000e+03   2.6748900e+02   2.5924680e+03   1.1114700e+02   5.2196300e+02   3.2200000e-01   
1.4716250e+03   2.5581300e+02   2.6240530e+03   1.1096200e+02   5.0936500e+02   3.3100000e-01   
1.4717500e+03   2.4890000e+02   2.6311270e+03   1.0779700e+02   5.1005900e+02   3.4400000e-01   
1.4718750e+03   2.4826300e+02   2.6074751e+03   1.0508600e+02   5.1477000e+02   3.4800000e-01   
1.4720000e+03   2.5033200e+02   2.5670449e+03   1.0457500e+02   5.1815600e+02   3.4800000e-01   
1.4721250e+03   2.5218800e+02   2.5484341e+03   1.0488100e+02   5.0915500e+02   3.3700000e-01   
1.4722500e+03   2.5091900e+02   2.5733601e+03   1.0491000e+02   4.8486400e+02   3.1700000e-01   
1.4723750e+03   2.4593600e+02   2.5807571e+03   1.0410100e+02   4.6703000e+02   3.0800000e-01   
1.4725000e+03   2.3928900e+02   2.5865920e+03   1.0343700e+02   4.4591500e+02   2.9800000e-01   
1.4726250e+03   2.3141200e+02   2.5987351e+03   1.0162600e+02   4.3073100e+02   2.9700000e-01   
1.4727500e+03   2.2351100e+02   2.6246980e+03   9.4642000e+01   4.2825000e+02   3.1300000e-01   
1.4728750e+03   2.1722900e+02   2.6637119e+03   8.4027000e+01   4.2968000e+02   3.2800000e-01   
1.4730000e+03   2.1360000e+02   2.6963521e+03   7.2807000e+01   4.3439100e+02   3.4100000e-01   
1.4731250e+03   2.1223800e+02   2.7025090e+03   6.4524000e+01   4.3624100e+02   3.4500000e-01   
1.4732500e+03   2.1322900e+02   2.6748831e+03   6.1211000e+01   4.3788200e+02   3.4500000e-01   
1.4733750e+03   2.1577500e+02   2.6346250e+03   6.3577000e+01   4.3645200e+02   3.3800000e-01   
1.4735000e+03   2.1985300e+02   2.5912310e+03   6.8373000e+01   4.3174100e+02   3.2500000e-01   
1.4736250e+03   2.2436400e+02   2.5512749e+03   7.4242000e+01   4.2681900e+02   3.0900000e-01   
