~VERSION INFORMATION                                    
VERS.   2.0        : LAS LOG ASCII STANDARD VERSION 2.0 
WRAP.   NO         : ONE LINE PER DEPTH STEP            
~WELL INFORMATION                                       
STRT.M   208.0000                     :                 
STOP.M   1569.1250                    :                 
STEP.M   0.1250                       :                 
NULL.    -999.25                      :                 
WELL.    Alberta Well     : Well Name       
OPER.                                 : Operator        
FLD .                                 : Field           
DATE.                                 : Date Logged     
SRVC.                                 : Service Company 
UWI .                                 : UNIQUE WELL ID  
LSD .                                 : LSD             
SEC .                                 : Section         
TWP .                                 : Township        
RGE .                                 : Range           
MER .                                 : Meridian        
LOC .                                 : Location Descrip
~PARAMETER                                              
EKB.M   977.400    : ELEVATION KB                       
EGL.M   973.3000   : GL Elevation                       
TLI.M   208.0000   : Log Run Top                        
BLI.M   1586.0000  : Log Run Base                       
~CURVE                                                  
DEPT   .M                   : 1 DEPTH                   
DTP    .usec/m              : 2 DTP                     
RHOB   .kg/m3               : 3 RHOB                    
GR     .API      UNITS      : 4 GR                      
DTS    .usec/m              : 5 DTS                     
POISSON.NO       UNITS      : 6 POISSON                 
~TOPS                                                   
#TOPS NAME          .        DEPTH:                     
BellyRiver          .    516    :                       
BasalBellyRiver     .    753    :                       
LeaPark             .    768    :                       
Colorado            .    892    :                       
MedicineHat         .    1032   :                       
BaseFishScales      .    1273   :                       
Viking              .    1307   :                       
Joli Fou            .    1372   :                       
Mannville           .    1402   :                       
MedicineRiverCoal   .    1469   :                       
Glauconitic         .    1499   :                       
TopPorosity         .    1502.5 :                       
Ostracod            .    1514.5 :                       
Ellerslie           .    1540   :                       
Pekisko             .    1554   :                       
TD                  .    1572   :                       
~A                                                      
# ...
3.0137500e+02   3.1342500e+02   2.3345410e+03   6.4051000e+01   6.0593800e+02   3.1700000e-01   
3.0150000e+02   3.1241100e+02   2.3446101e+03   6.6378000e+01   5.9916700e+02   3.1300000e-01   
3.0162500e+02   3.1027500e+02   2.3538110e+03   6.8631000e+01   5.9567500e+02   3.1400000e-01   
3.0175000e+02   3.0751300e+02   2.3638789e+03   7.0233000e+01   5.9393000e+02   3.1700000e-01   
3.0187500e+02   3.0524600e+02   2.3755259e+03   7.1258000e+01   5.9536000e+02   3.2200000e-01   
3.0200000e+02   3.0379900e+02   2.3857920e+03   7.0835000e+01   6.0007100e+02   3.2800000e-01   
3.0212500e+02   3.0437900e+02   2.3902451e+03   6.9888000e+01   6.0806300e+02   3.3300000e-01   
3.0225000e+02   3.0681700e+02   2.3873669e+03   6.9845000e+01   6.1780000e+02   3.3600000e-01   
3.0237500e+02   3.0938600e+02   2.3793020e+03   7.1478000e+01   6.2610700e+02   3.3800000e-01   
3.0250000e+02   3.1154500e+02   2.3715669e+03   7.3400000e+01   6.3123900e+02   3.3900000e-01   
3.0262500e+02   3.1178400e+02   2.3660730e+03   7.5393000e+01   6.3155400e+02   3.3900000e-01   
3.0275000e+02   3.0835600e+02   2.3632800e+03   7.5779000e+01   6.2387800e+02   3.3800000e-01   
3.0287500e+02   3.0233600e+02   2.3622400e+03   7.3870000e+01   6.1107000e+02   3.3800000e-01   
3.0300000e+02   2.9517100e+02   2.3674370e+03   6.9519000e+01   5.9641100e+02   3.3800000e-01   
3.0312500e+02   2.8809100e+02   2.3827390e+03   6.3810000e+01   5.8318300e+02   3.3900000e-01   
3.0325000e+02   2.8413700e+02   2.4078450e+03   5.8937000e+01   5.7620100e+02   3.3900000e-01   
3.0337500e+02   2.8579400e+02   2.4306841e+03   5.6594000e+01   5.7885100e+02   3.3900000e-01   
3.0350000e+02   2.9118700e+02   2.4353960e+03   5.7500000e+01   5.9134300e+02   3.4000000e-01   
3.0362500e+02   2.9884800e+02   2.4149661e+03   6.0959000e+01   6.0753700e+02   3.4000000e-01   
3.0375000e+02   3.0674800e+02   2.3806951e+03   6.5692000e+01   6.2394100e+02   3.4100000e-01   
3.0387500e+02   3.1212500e+02   2.3483899e+03   7.0359000e+01   6.3573900e+02   3.4100000e-01   
3.0400000e+02   3.1331600e+02   2.3323459e+03   7.3357000e+01   6.4108100e+02   3.4300000e-01   
3.0412500e+02   3.1060000e+02   2.3351221e+03   7.2991000e+01   6.3679100e+02   3.4400000e-01   
3.0425000e+02   3.0419300e+02   2.3515759e+03   7.0202000e+01   6.2726400e+02   3.4600000e-01   
3.0437500e+02   2.9590600e+02   2.3732710e+03   6.6603000e+01   6.1588600e+02   3.5000000e-01   
3.0450000e+02   2.8880300e+02   2.3931130e+03   6.4625000e+01   6.0440300e+02   3.5200000e-01   
3.0462500e+02   2.8405200e+02   2.4054580e+03   6.4556000e+01   5.9292000e+02   3.5100000e-01   
3.0475000e+02   2.8266700e+02   2.4173660e+03   6.5355000e+01   5.8450800e+02   3.4700000e-01   
3.0487500e+02   2.8497300e+02   2.4346279e+03   6.5363000e+01   5.8091200e+02   3.4200000e-01   
3.0500000e+02   2.8885800e+02   2.4571951e+03   6.4918000e+01   5.7916600e+02   3.3400000e-01   
3.0512500e+02   2.9175200e+02   2.4752180e+03   6.3774000e+01   5.8059600e+02   3.3100000e-01   
3.0525000e+02   2.9300500e+02   2.4774819e+03   6.3692000e+01   5.8377200e+02   3.3200000e-01   
3.0537500e+02   2.9322100e+02   2.4625139e+03   6.4363000e+01   5.8705300e+02   3.3400000e-01   
3.0550000e+02   2.9261800e+02   2.4424309e+03   6.6275000e+01   5.8879900e+02   3.3600000e-01   
3.0562500e+02   2.9179800e+02   2.4294551e+03   6.7598000e+01   5.8890400e+02   3.3700000e-01   
3.0575000e+02   2.9188300e+02   2.4257930e+03   6.7908000e+01   5.8736800e+02   3.3600000e-01   
3.0587500e+02   2.9289700e+02   2.4263740e+03   6.7334000e+01   5.8726300e+02   3.3400000e-01   
3.0600000e+02   2.9412700e+02   2.4268059e+03   6.6400000e+01   5.8726300e+02   3.3300000e-01   
3.0612500e+02   2.9596100e+02   2.4270630e+03   6.6227000e+01   5.9033400e+02   3.3200000e-01   
3.0625000e+02   2.9921900e+02   2.4256111e+03   6.7202000e+01   5.9822000e+02   3.3300000e-01   
3.0637500e+02   3.0321100e+02   2.4219031e+03   6.8581000e+01   6.0949300e+02   3.3600000e-01   
3.0650000e+02   3.0731200e+02   2.4159541e+03   6.9779000e+01   6.2251100e+02   3.3900000e-01   
3.0662500e+02   3.1081000e+02   2.4081460e+03   7.0555000e+01   6.3716900e+02   3.4400000e-01   
3.0675000e+02   3.1318500e+02   2.4015190e+03   7.0982000e+01   6.5039800e+02   3.4900000e-01   
3.0687500e+02   3.1433000e+02   2.3982539e+03   7.1776000e+01   6.5891500e+02   3.5300000e-01   
3.0700000e+02   3.1424500e+02   2.3965640e+03   7.2462000e+01   6.6251100e+02   3.5500000e-01   
3.0712500e+02   3.1232600e+02   2.3945759e+03   7.2562000e+01   6.5965100e+02   3.5600000e-01   
3.0725000e+02   3.0896000e+02   2.3908799e+03   7.2193000e+01   6.5330000e+02   3.5600000e-01   
3.0737500e+02   3.0526900e+02   2.3871670e+03   7.1170000e+01   6.4366800e+02   3.5500000e-01   
3.0750000e+02   3.0157800e+02   2.3887710e+03   7.0034000e+01   6.3536000e+02   3.5500000e-01   
3.0762500e+02   2.9849100e+02   2.4002839e+03   6.9161000e+01   6.3022900e+02   3.5500000e-01   
3.0775000e+02   2.9773300e+02   2.4183540e+03   6.8675000e+01   6.2991400e+02   3.5600000e-01   
3.0787500e+02   2.9984500e+02   2.4346860e+03   6.8614000e+01   6.3605500e+02   3.5700000e-01   
3.0800000e+02   3.0422500e+02   2.4411160e+03   6.9488000e+01   6.5029300e+02   3.6000000e-01   
3.0812500e+02   3.1035400e+02   2.4349480e+03   7.2023000e+01   6.6812700e+02   3.6200000e-01   
3.0825000e+02   3.1751900e+02   2.4205859e+03   7.5238000e+01   6.8924200e+02   3.6500000e-01   
3.0837500e+02   3.2490100e+02   2.4045339e+03   7.8724000e+01   7.1210200e+02   3.6900000e-01   
3.0850000e+02   3.3137700e+02   2.3906550e+03   8.1396000e+01   7.3199700e+02   3.7100000e-01   
3.0862500e+02   3.3632100e+02   2.3813020e+03   8.2097000e+01   7.4707600e+02   3.7300000e-01   
3.0875000e+02   3.3992700e+02   2.3795950e+03   8.1327000e+01   7.5723400e+02   3.7400000e-01   
3.0887500e+02   3.4200000e+02   2.3819509e+03   8.0424000e+01   7.6247100e+02   3.7400000e-01   
3.0900000e+02   3.4273500e+02   2.3821089e+03   7.8959000e+01   7.6432100e+02   3.7400000e-01   
3.0912500e+02   3.4254200e+02   2.3780649e+03   7.7480000e+01   7.6442600e+02   3.7400000e-01   
3.0925000e+02   3.4183000e+02   2.3716411e+03   7.7079000e+01   7.6135600e+02   3.7400000e-01   
3.0937500e+02   3.4070800e+02   2.3668130e+03   7.7023000e+01   7.5961000e+02   3.7400000e-01   
3.0950000e+02   3.3977900e+02   2.3663999e+03   7.7303000e+01   7.5797000e+02   3.7400000e-01   
3.0962500e+02   3.3926100e+02   2.3691470e+03   7.7441000e+01   7.5786500e+02   3.7500000e-01   
3.0975000e+02   3.3975600e+02   2.3702639e+03   7.6554000e+01   7.5940000e+02   3.7500000e-01   
3.0987500e+02   3.4148200e+02   2.3698811e+03   7.5487000e+01   7.6411100e+02   3.7500000e-01   
3.1000000e+02   3.4353300e+02   2.3680540e+03   7.5496000e+01   7.6903200e+02   3.7500000e-01   
3.1012500e+02   3.4558300e+02   2.3653250e+03   7.5212000e+01   7.7395300e+02   3.7500000e-01   
3.1025000e+02   3.4703000e+02   2.3629519e+03   7.5461000e+01   7.7733900e+02   3.7600000e-01   
3.1037500e+02   3.4735500e+02   2.3619800e+03   7.5732000e+01   7.7908500e+02   3.7600000e-01   
3.1050000e+02   3.4675100e+02   2.3621340e+03   7.6004000e+01   7.7919000e+02   3.7700000e-01   
3.1062500e+02   3.4562900e+02   2.3627510e+03   7.6663000e+01   7.7919000e+02   3.7800000e-01   
3.1075000e+02   3.4470100e+02   2.3636819e+03   7.8259000e+01   7.7919000e+02   3.7800000e-01   
3.1087500e+02   3.4418200e+02   2.3635959e+03   7.9217000e+01   7.7919000e+02   3.7900000e-01   
3.1100000e+02   3.4437600e+02   2.3621350e+03   8.0131000e+01   7.7919000e+02   3.7900000e-01   
3.1112500e+02   3.4538900e+02   2.3596880e+03   8.0470000e+01   7.8226100e+02   3.7900000e-01   
3.1125000e+02   3.4752500e+02   2.3579050e+03   7.9540000e+01   7.8554100e+02   3.7800000e-01   
3.1137500e+02   3.4998600e+02   2.3564551e+03   7.8398000e+01   7.9035700e+02   3.7800000e-01   
3.1150000e+02   3.5274800e+02   2.3546741e+03   7.7525000e+01   7.9527900e+02   3.7800000e-01   
3.1162500e+02   3.5501500e+02   2.3512500e+03   7.8025000e+01   8.0020000e+02   3.7700000e-01   
