~VERSION INFORMATION                                    
VERS.   2.0        : LAS LOG ASCII STANDARD VERSION 2.0 
WRAP.   NO         : ONE LINE PER DEPTH STEP            
~WELL INFORMATION                                       
STRT.M   208.0000                     :                 
STOP.M   1569.1250                    :                 
STEP.M   0.1250                       :                 
NULL.    -999.25                      :                 
WELL.    Alberta Well     : Well Name       
OPER.                                 : Operator        
FLD .                                 : Field           
DATE.                                 : Date Logged     
SRVC.                                 : Service Company 
UWI .                                 : UNIQUE WELL ID  
LSD .                                 : LSD             
SEC .                                 : Section         
TWP .                                 : Township        
RGE .                                 : Range           
MER .                                 : Meridian        
LOC .                                 : Location Descrip
~PARAMETER                                              
EKB.M   977.400    : ELEVATION KB                       
EGL.M   973.3000   : GL Elevation                       
TLI.M   208.0000   : Log Run Top                        
BLI.M   1586.0000  : Log Run Base                       
~CURVE                                                  
DEPT   .M                   : 1 DEPTH                   
DTP    .usec/m              : 2 DTP                     
RHOB   .kg/m3               : 3 RHOB                    
GR     .API      UNITS      : 4 GR                      
DTS    .usec/m              : 5 DTS                     
POISSON.NO       UNITS      : 6 POISSON                 
~TOPS                                                   
#TOPS NAME          .        DEPTH:                     
BellyRiver          .    516    :                       
BasalBellyRiver     .    753    :                       
LeaPark             .    768    :                       
Colorado            .    892    :                       
MedicineHat         .    1032   :                       
BaseFishScales      .    1273   :                       
Viking              .    1307   :                       
Joli Fou            .    1372   :                       
Mannville           .    1402   :                       
MedicineRiverCoal   .    1469   :                       
Glauconitic         .    1499   :                       
TopPorosity         .    1502.5 :                       
Ostracod            .    1514.5 :                       
Ellerslie           .    1540   :                       
Pekisko             .    1554   :                       
TD                  .    1572   :                       
~A                                                      
# ...
3.8437500e+02   3.0602000e+02   2.4501121e+03   9.1817000e+01   6.1647500e+02   3.3700000e-01   
3.8450000e+02   3.0725000e+02   2.4519189e+03   9.0948000e+01   6.2293100e+02   3.3900000e-01   
3.8462500e+02   3.0878200e+02   2.4516321e+03   9.0507000e+01   6.3102800e+02   3.4300000e-01   
3.8475000e+02   3.1042300e+02   2.4478401e+03   9.0396000e+01   6.3769500e+02   3.4500000e-01   
3.8487500e+02   3.1236500e+02   2.4418521e+03   9.0501000e+01   6.4425700e+02   3.4600000e-01   
3.8500000e+02   3.1381200e+02   2.4363279e+03   9.0379000e+01   6.5081800e+02   3.4900000e-01   
3.8512500e+02   3.1443800e+02   2.4330840e+03   8.9801000e+01   6.5738000e+02   3.5200000e-01   
3.8525000e+02   3.1424500e+02   2.4327710e+03   8.9075000e+01   6.6394100e+02   3.5600000e-01   
3.8537500e+02   3.1323100e+02   2.4393491e+03   8.7377000e+01   6.7050300e+02   3.6000000e-01   
3.8550000e+02   3.1139700e+02   2.4558931e+03   8.4568000e+01   6.7552900e+02   3.6500000e-01   
3.8562500e+02   3.0995000e+02   2.4769241e+03   8.1834000e+01   6.7738000e+02   3.6800000e-01   
3.8575000e+02   3.0902200e+02   2.4903770e+03   7.9973000e+01   6.7748500e+02   3.6900000e-01   
3.8587500e+02   3.0850300e+02   2.4866350e+03   7.9674000e+01   6.7441500e+02   3.6800000e-01   
3.8600000e+02   3.0930100e+02   2.4652380e+03   8.0886000e+01   6.6959900e+02   3.6400000e-01   
3.8612500e+02   3.1083300e+02   2.4379871e+03   8.1907000e+01   6.6467700e+02   3.6000000e-01   
3.8625000e+02   3.1277500e+02   2.4161509e+03   8.1797000e+01   6.6129200e+02   3.5600000e-01   
3.8637500e+02   3.1482600e+02   2.4021731e+03   8.0433000e+01   6.5801100e+02   3.5200000e-01   
3.8650000e+02   3.1687600e+02   2.3953621e+03   7.8736000e+01   6.5780000e+02   3.4900000e-01   
3.8662500e+02   3.1832300e+02   2.3953501e+03   7.8027000e+01   6.6087100e+02   3.4900000e-01   
3.8675000e+02   3.1955300e+02   2.4004490e+03   7.8392000e+01   6.6415200e+02   3.4900000e-01   
3.8687500e+02   3.2078300e+02   2.4080330e+03   7.9487000e+01   6.6896800e+02   3.5100000e-01   
3.8700000e+02   3.2201400e+02   2.4152529e+03   8.1424000e+01   6.7542400e+02   3.5300000e-01   
3.8712500e+02   3.2324400e+02   2.4201589e+03   8.3459000e+01   6.8198600e+02   3.5500000e-01   
3.8725000e+02   3.2477600e+02   2.4230181e+03   8.4606000e+01   6.9008300e+02   3.5800000e-01   
3.8737500e+02   3.2732200e+02   2.4233350e+03   8.5155000e+01   7.0442600e+02   3.6200000e-01   
3.8750000e+02   3.3170200e+02   2.4163469e+03   8.4969000e+01   7.3147200e+02   3.7100000e-01   
3.8762500e+02   3.4024500e+02   2.3832390e+03   8.4092000e+01   7.6396400e+02   3.7600000e-01   
3.8775000e+02   3.5129500e+02   2.2893479e+03   8.2293000e+01   7.9984300e+02   3.8000000e-01   
3.8787500e+02   3.6338100e+02   2.1350000e+03   7.9012000e+01   8.3286100e+02   3.8200000e-01   
3.8800000e+02   3.7417500e+02   1.9875530e+03   7.4043000e+01   8.5645700e+02   3.8200000e-01   
3.8812500e+02   3.8201300e+02   1.9124260e+03   7.0245000e+01   8.5946500e+02   3.7700000e-01   
3.8825000e+02   3.8415500e+02   1.9275050e+03   7.0349000e+01   8.4728700e+02   3.7100000e-01   
3.8837500e+02   3.7943500e+02   2.0249570e+03   7.3896000e+01   8.2188200e+02   3.6500000e-01   
3.8850000e+02   3.6804400e+02   2.1724509e+03   7.8501000e+01   7.8949500e+02   3.6100000e-01   
3.8862500e+02   3.5311000e+02   2.3021599e+03   8.1409000e+01   7.5668700e+02   3.6100000e-01   
3.8875000e+02   3.3843100e+02   2.3604160e+03   8.1366000e+01   7.2694900e+02   3.6200000e-01   
3.8887500e+02   3.2528500e+02   2.3636489e+03   7.9402000e+01   7.0202800e+02   3.6300000e-01   
3.8900000e+02   3.1649600e+02   2.3548889e+03   7.7640000e+01   6.8509800e+02   3.6400000e-01   
3.8912500e+02   3.1364100e+02   2.3510891e+03   7.7397000e+01   6.7330000e+02   3.6100000e-01   
3.8925000e+02   3.1362000e+02   2.3537781e+03   7.8660000e+01   6.5414100e+02   3.5100000e-01   
3.8937500e+02   3.1402500e+02   2.3604099e+03   7.9847000e+01   6.4668400e+02   3.4600000e-01   
3.8950000e+02   3.1383300e+02   2.3658840e+03   7.9914000e+01   6.3855000e+02   3.4100000e-01   
3.8962500e+02   3.1372700e+02   2.3694661e+03   7.8021000e+01   6.3190300e+02   3.3600000e-01   
3.8975000e+02   3.1373700e+02   2.3767539e+03   7.5258000e+01   6.2843500e+02   3.3400000e-01   
3.8987500e+02   3.1427600e+02   2.3894241e+03   7.4044000e+01   6.2684400e+02   3.3200000e-01   
3.9000000e+02   3.2022800e+02   2.4023770e+03   7.4605000e+01   6.3003700e+02   3.2600000e-01   
3.9012500e+02   3.2774900e+02   2.4086841e+03   7.5833000e+01   6.3814600e+02   3.2100000e-01   
3.9025000e+02   3.3489200e+02   2.4050049e+03   7.6540000e+01   6.4968300e+02   3.1900000e-01   
3.9037500e+02   3.4220300e+02   2.3946680e+03   7.6149000e+01   6.6444900e+02   3.2000000e-01   
3.9050000e+02   3.4890200e+02   2.3861250e+03   7.5789000e+01   6.8087100e+02   3.2200000e-01   
3.9062500e+02   3.5032500e+02   2.3836599e+03   7.6987000e+01   6.9727100e+02   3.3100000e-01   
3.9075000e+02   3.5019800e+02   2.3867061e+03   7.9107000e+01   7.1223700e+02   3.4100000e-01   
3.9087500e+02   3.4979400e+02   2.3938931e+03   8.1980000e+01   7.2682300e+02   3.4900000e-01   
3.9100000e+02   3.4850100e+02   2.4039619e+03   8.4700000e+01   7.3812200e+02   3.5700000e-01   
3.9112500e+02   3.4751400e+02   2.4135149e+03   8.6647000e+01   7.4452600e+02   3.6100000e-01   
3.9125000e+02   3.4707700e+02   2.4188511e+03   8.8239000e+01   7.4611400e+02   3.6200000e-01   
3.9137500e+02   3.4733700e+02   2.4135879e+03   8.8901000e+01   7.4390900e+02   3.6100000e-01   
3.9150000e+02   3.4806700e+02   2.3890471e+03   8.8124000e+01   7.3563000e+02   3.5600000e-01   
3.9162500e+02   3.4889300e+02   2.3479470e+03   8.6516000e+01   7.2363000e+02   3.4900000e-01   
3.9175000e+02   3.4958500e+02   2.3094590e+03   8.4689000e+01   7.0694900e+02   3.3800000e-01   
3.9187500e+02   3.4921500e+02   2.2946570e+03   8.2822000e+01   6.8707800e+02   3.2600000e-01   
3.9200000e+02   3.4695100e+02   2.3112771e+03   8.1447000e+01   6.6593100e+02   3.1400000e-01   
3.9212500e+02   3.4281400e+02   2.3473770e+03   7.9257000e+01   6.4626800e+02   3.0400000e-01   
3.9225000e+02   3.3800200e+02   2.3791389e+03   7.5006000e+01   6.2905200e+02   2.9700000e-01   
3.9237500e+02   3.3359200e+02   2.3964641e+03   6.8754000e+01   6.1822500e+02   2.9500000e-01   
3.9250000e+02   3.3080700e+02   2.4116389e+03   6.1798000e+01   6.1461800e+02   2.9600000e-01   
3.9262500e+02   3.3111200e+02   2.4332620e+03   5.6782000e+01   6.2140700e+02   3.0200000e-01   
3.9275000e+02   3.3552500e+02   2.4492200e+03   5.6061000e+01   6.4194300e+02   3.1200000e-01   
3.9287500e+02   3.4417500e+02   2.4430669e+03   6.0025000e+01   6.7768000e+02   3.2600000e-01   
3.9300000e+02   3.5458900e+02   2.4179890e+03   6.6827000e+01   7.2275900e+02   3.4200000e-01   
3.9312500e+02   3.6465700e+02   2.3937209e+03   7.4369000e+01   7.7173200e+02   3.5600000e-01   
3.9325000e+02   3.7291600e+02   2.3859089e+03   8.0713000e+01   8.1728500e+02   3.6900000e-01   
3.9337500e+02   3.7825400e+02   2.3923149e+03   8.4756000e+01   8.5025100e+02   3.7700000e-01   
3.9350000e+02   3.7914600e+02   2.4000969e+03   8.6684000e+01   8.6598600e+02   3.8100000e-01   
3.9362500e+02   3.7637300e+02   2.4031079e+03   8.7472000e+01   8.6696600e+02   3.8400000e-01   
3.9375000e+02   3.7084400e+02   2.4050239e+03   8.7732000e+01   8.5455600e+02   3.8400000e-01   
3.9387500e+02   3.6324400e+02   2.4082500e+03   8.7851000e+01   8.3044800e+02   3.8200000e-01   
3.9400000e+02   3.5372800e+02   2.4112971e+03   8.8043000e+01   8.0061100e+02   3.7900000e-01   
3.9412500e+02   3.4356700e+02   2.4118401e+03   8.7926000e+01   7.6930000e+02   3.7500000e-01   
3.9425000e+02   3.3410300e+02   2.4093101e+03   8.7485000e+01   7.3878200e+02   3.7100000e-01   
3.9437500e+02   3.2665300e+02   2.4066321e+03   8.6964000e+01   7.1233100e+02   3.6700000e-01   
3.9450000e+02   3.2154400e+02   2.4077661e+03   8.6470000e+01   6.9238300e+02   3.6300000e-01   
3.9462500e+02   3.1891100e+02   2.4130229e+03   8.6190000e+01   6.7862100e+02   3.5800000e-01   
