~VERSION INFORMATION                                    
VERS.   2.0        : LAS LOG ASCII STANDARD VERSION 2.0 
WRAP.   NO         : ONE LINE PER DEPTH STEP            
~WELL INFORMATION                                       
STRT.M   208.0000                     :                 
STOP.M   1569.1250                    :                 
STEP.M   0.1250                       :                 
NULL.    -999.25                      :                 
WELL.    Alberta Well     : Well Name       
OPER.                                 : Operator        
FLD .                                 : Field           
DATE.                                 : Date Logged     
SRVC.                                 : Service Company 
UWI .                                 : UNIQUE WELL ID  
LSD .                                 : LSD             
SEC .                                 : Section         
TWP .                                 : Township        
RGE .                                 : Range           
MER .                                 : Meridian        
LOC .                                 : Location Descrip
~PARAMETER                                              
EKB.M   977.400    : ELEVATION KB                       
EGL.M   973.3000   : GL Elevation                       
TLI.M   208.0000   : Log Run Top                        
BLI.M   1586.0000  : Log Run Base                       
~CURVE                                                  
DEPT   .M                   : 1 DEPTH                   
DTP    .usec/m              : 2 DTP                     
RHOB   .kg/m3               : 3 RHOB                    
GR     .API      UNITS      : 4 GR                      
DTS    .usec/m              : 5 DTS                     
POISSON.NO       UNITS      : 6 POISSON                 
~TOPS                                                   
#TOPS NAME          .        DEPTH:                     
BellyRiver          .    516    :                       
BasalBellyRiver     .    753    :                       
LeaPark             .    768    :                       
Colorado            .    892    :                       
MedicineHat         .    1032   :                       
BaseFishScales      .    1273   :                       
Viking              .    1307   :                       
Joli Fou            .    1372   :                       
Mannville           .    1402   :                       
MedicineRiverCoal   .    1469   :                       
Glauconitic         .    1499   :                       
TopPorosity         .    1502.5 :                       
Ostracod            .    1514.5 :                       
Ellerslie           .    1540   :                       
Pekisko             .    1554   :                       
TD                  .    1572   :                       
~A                                                      
2.0800000e+02   3.6381400e+02   2.2377891e+03   8.9394000e+01   8.3504900e+02   3.8300000e-01   
2.0812500e+02   3.7598600e+02   2.2101860e+03   9.2422000e+01   9.0244600e+02   3.9500000e-01   
2.0825000e+02   3.8990600e+02   2.1789260e+03   9.4846000e+01   9.6539400e+02   4.0300000e-01   
2.0837500e+02   4.0305200e+02   2.1363521e+03   9.7356000e+01   1.0318540e+03   4.1000000e-01   
2.0850000e+02   4.1455800e+02   2.0802329e+03   9.8437000e+01   1.0977480e+03   4.1700000e-01   
2.0862500e+02   4.2593300e+02   1.9996720e+03   9.6759000e+01   1.1581520e+03   4.2200000e-01   
2.0875000e+02   4.3349200e+02   1.8928090e+03   9.0900000e+01   1.2076219e+03   4.2600000e-01   
2.0887500e+02   4.3602200e+02   1.7969250e+03   8.3433000e+01   1.2447120e+03   4.3000000e-01   
2.0900000e+02   4.3423400e+02   1.7530400e+03   7.6573000e+01   1.2567520e+03   4.3200000e-01   
2.0912500e+02   4.2834500e+02   1.7739070e+03   7.3670000e+01   1.2387870e+03   4.3200000e-01   
2.0925000e+02   4.1382800e+02   1.8549800e+03   7.4168000e+01   1.1890031e+03   4.3100000e-01   
2.0937500e+02   3.9720700e+02   1.9759290e+03   7.7839000e+01   1.1204850e+03   4.2800000e-01   
2.0950000e+02   3.8231200e+02   2.0926250e+03   8.1781000e+01   1.0372080e+03   4.2100000e-01   
2.0962500e+02   3.7067500e+02   2.1667170e+03   8.4547000e+01   9.5965400e+02   4.1200000e-01   
2.0975000e+02   3.6152200e+02   2.2001870e+03   8.5343000e+01   8.9483700e+02   4.0200000e-01   
2.0987500e+02   3.5834200e+02   2.2149080e+03   8.5425000e+01   8.4621400e+02   3.9100000e-01   
2.1000000e+02   3.5681000e+02   2.2301130e+03   8.5297000e+01   8.1246000e+02   3.8100000e-01   
2.1012500e+02   3.5486800e+02   2.2481990e+03   8.6173000e+01   7.9039900e+02   3.7400000e-01   
2.1025000e+02   3.5221400e+02   2.2697791e+03   8.8069000e+01   7.7368000e+02   3.6900000e-01   
2.1037500e+02   3.4934300e+02   2.2916389e+03   8.9489000e+01   7.6034600e+02   3.6600000e-01   
2.1050000e+02   3.4768000e+02   2.3090161e+03   8.8655000e+01   7.5643500e+02   3.6600000e-01   
2.1062500e+02   3.4856200e+02   2.3255110e+03   8.5334000e+01   7.6697100e+02   3.7000000e-01   
2.1075000e+02   3.5141000e+02   2.3484741e+03   7.9846000e+01   7.8920100e+02   3.7600000e-01   
2.1087500e+02   3.5348300e+02   2.3640259e+03   7.4416000e+01   8.1523700e+02   3.8400000e-01   
2.1100000e+02   3.5512400e+02   2.3307209e+03   7.2250000e+01   8.3841300e+02   3.9100000e-01   
2.1112500e+02   3.5585900e+02   2.2722810e+03   7.4602000e+01   8.5370200e+02   3.9500000e-01   
2.1125000e+02   3.5415600e+02   2.2287319e+03   7.9353000e+01   8.5311300e+02   3.9600000e-01   
2.1137500e+02   3.4656400e+02   2.2237209e+03   8.3597000e+01   8.2383800e+02   3.9200000e-01   
2.1150000e+02   3.3773600e+02   2.2511880e+03   8.5170000e+01   7.8499400e+02   3.8600000e-01   
2.1162500e+02   3.2942500e+02   2.2945850e+03   8.4547000e+01   7.4255400e+02   3.7700000e-01   
2.1175000e+02   3.2212900e+02   2.3191421e+03   8.2881000e+01   7.0143900e+02   3.6600000e-01   
2.1187500e+02   3.1666600e+02   2.3275620e+03   8.1387000e+01   6.6196400e+02   3.5200000e-01   
2.1200000e+02   3.1627200e+02   2.3302070e+03   8.0872000e+01   6.3948200e+02   3.3800000e-01   
2.1212500e+02   3.1810600e+02   2.3327429e+03   8.0726000e+01   6.2276300e+02   3.2300000e-01   
2.1225000e+02   3.2015700e+02   2.3382539e+03   8.0337000e+01   6.1557100e+02   3.1500000e-01   
2.1237500e+02   3.2069800e+02   2.3475139e+03   7.9896000e+01   6.1207900e+02   3.1100000e-01   
2.1250000e+02   3.1918900e+02   2.3574390e+03   7.8618000e+01   6.1340400e+02   3.1400000e-01   
2.1262500e+02   3.1683700e+02   2.3654221e+03   7.7504000e+01   6.2579200e+02   3.2800000e-01   
2.1275000e+02   3.1407400e+02   2.3667981e+03   7.7974000e+01   6.4045000e+02   3.4200000e-01   
2.1287500e+02   3.1120400e+02   2.3640291e+03   7.8622000e+01   6.5214300e+02   3.5300000e-01   
2.1300000e+02   3.0954000e+02   2.3668850e+03   7.7963000e+01   6.6516100e+02   3.6200000e-01   
2.1312500e+02   3.0951700e+02   2.3803010e+03   7.5616000e+01   6.7060800e+02   3.6500000e-01   
2.1325000e+02   3.1113500e+02   2.3974680e+03   7.2134000e+01   6.7706500e+02   3.6600000e-01   
2.1337500e+02   3.1741100e+02   2.3938850e+03   6.9695000e+01   6.9283800e+02   3.6700000e-01   
2.1350000e+02   3.2671200e+02   2.3508379e+03   7.0067000e+01   7.1998900e+02   3.7000000e-01   
2.1362500e+02   3.3896800e+02   2.2754971e+03   7.2861000e+01   7.5401700e+02   3.7300000e-01   
2.1375000e+02   3.5299700e+02   2.2065110e+03   7.6699000e+01   8.0688800e+02   3.8200000e-01   
2.1387500e+02   3.6735100e+02   2.1771030e+03   8.0343000e+01   8.6102200e+02   3.8900000e-01   
2.1400000e+02   3.7808200e+02   2.1732429e+03   8.3334000e+01   9.0901400e+02   3.9500000e-01   
2.1412500e+02   3.8691100e+02   2.1645239e+03   8.4668000e+01   9.3969700e+02   3.9800000e-01   
2.1425000e+02   3.9280700e+02   2.1317361e+03   8.5045000e+01   9.5233700e+02   3.9700000e-01   
2.1437500e+02   3.9531300e+02   2.0750271e+03   8.5669000e+01   9.5153700e+02   3.9600000e-01   
2.1450000e+02   3.9544500e+02   2.0200150e+03   8.5772000e+01   9.3147300e+02   3.9000000e-01   
2.1462500e+02   3.9412900e+02   2.0005310e+03   8.5601000e+01   8.9940100e+02   3.8100000e-01   
2.1475000e+02   3.9098000e+02   2.0224480e+03   8.4792000e+01   8.7427000e+02   3.7500000e-01   
2.1487500e+02   3.8578000e+02   2.0810701e+03   8.3843000e+01   8.5273400e+02   3.7100000e-01   
2.1500000e+02   3.7973600e+02   2.1608730e+03   8.3469000e+01   8.3140900e+02   3.6800000e-01   
2.1512500e+02   3.7267900e+02   2.2358879e+03   8.3519000e+01   8.1469000e+02   3.6800000e-01   
2.1525000e+02   3.6529800e+02   2.2858530e+03   8.3562000e+01   8.0135600e+02   3.6900000e-01   
2.1537500e+02   3.5821800e+02   2.3207690e+03   8.2754000e+01   7.8516200e+02   3.6900000e-01   
2.1550000e+02   3.5275500e+02   2.3434839e+03   8.1788000e+01   7.7029400e+02   3.6700000e-01   
2.1562500e+02   3.4934300e+02   2.3501001e+03   8.1549000e+01   7.5706500e+02   3.6500000e-01   
2.1575000e+02   3.4858500e+02   2.3408459e+03   8.2086000e+01   7.5008300e+02   3.6200000e-01   
2.1587500e+02   3.5069800e+02   2.3383630e+03   8.1518000e+01   7.5273300e+02   3.6100000e-01   
2.1600000e+02   3.5598300e+02   2.3511440e+03   8.0375000e+01   7.6676100e+02   3.6300000e-01   
2.1612500e+02   3.6515300e+02   2.3650081e+03   7.8441000e+01   7.9380700e+02   3.6600000e-01   
2.1625000e+02   3.7570700e+02   2.3446140e+03   7.7522000e+01   8.3090500e+02   3.7200000e-01   
2.1637500e+02   3.8576600e+02   2.2724419e+03   7.8623000e+01   8.7631100e+02   3.8000000e-01   
2.1650000e+02   3.9440100e+02   2.1896899e+03   8.1365000e+01   9.1917200e+02   3.8700000e-01   
2.1662500e+02   4.0049000e+02   2.1442800e+03   8.5028000e+01   9.5414600e+02   3.9300000e-01   
2.1675000e+02   4.0187100e+02   2.1409331e+03   8.9288000e+01   9.6863500e+02   3.9600000e-01   
2.1687500e+02   3.9697400e+02   2.1681370e+03   9.2245000e+01   9.5699600e+02   3.9600000e-01   
2.1700000e+02   3.8760300e+02   2.2122620e+03   9.2921000e+01   9.2052800e+02   3.9200000e-01   
2.1712500e+02   3.7545400e+02   2.2540681e+03   9.1778000e+01   8.7321300e+02   3.8700000e-01   
2.1725000e+02   3.6236300e+02   2.2858679e+03   9.0031000e+01   8.1926000e+02   3.7800000e-01   
2.1737500e+02   3.4927800e+02   2.3156680e+03   8.9068000e+01   7.6830400e+02   3.7000000e-01   
2.1750000e+02   3.3956700e+02   2.3454729e+03   8.9028000e+01   7.3165700e+02   3.6300000e-01   
2.1762500e+02   3.3378500e+02   2.3691660e+03   8.8778000e+01   7.1293000e+02   3.6000000e-01   
2.1775000e+02   3.3142500e+02   2.3841201e+03   8.7300000e+01   7.0933800e+02   3.6000000e-01   
2.1787500e+02   3.3240000e+02   2.3913030e+03   8.4736000e+01   7.2059700e+02   3.6500000e-01   
2.1800000e+02   3.3700400e+02   2.3857419e+03   8.2378000e+01   7.4479700e+02   3.7100000e-01   
2.1812500e+02   3.4517800e+02   2.3547390e+03   8.1073000e+01   7.7409600e+02   3.7600000e-01   
2.1825000e+02   3.5451700e+02   2.3064109e+03   8.0845000e+01   8.0192800e+02   3.7900000e-01   
