~VERSION INFORMATION                                    
VERS.   2.0        : LAS LOG ASCII STANDARD VERSION 2.0 
WRAP.   NO         : ONE LINE PER DEPTH STEP            
~WELL INFORMATION                                       
STRT.M   208.0000                     :                 
STOP.M   1569.1250                    :                 
STEP.M   0.1250                       :                 
NULL.    -999.25                      :                 
WELL.    Alberta Well     : Well Name       
OPER.                                 : Operator        
FLD .                                 : Field           
DATE.                                 : Date Logged     
SRVC.                                 : Service Company 
UWI .                                 : UNIQUE WELL ID  
LSD .                                 : LSD             
SEC .                                 : Section         
TWP .                                 : Township        
RGE .                                 : Range           
MER .                                 : Meridian        
LOC .                                 : Location Descrip
~PARAMETER                                              
EKB.M   977.400    : ELEVATION KB                       
EGL.M   973.3000   : GL Elevation                       
TLI.M   208.0000   : Log Run Top                        
BLI.M   1586.0000  : Log Run Base                       
~CURVE                                                  
DEPT   .M                   : 1 DEPTH                   
DTP    .usec/m              : 2 DTP                     
RHOB   .kg/m3               : 3 RHOB                    
GR     .API      UNITS      : 4 GR                      
DTS    .usec/m              : 5 DTS                     
POISSON.NO       UNITS      : 6 POISSON                 
~TOPS                                                   
#TOPS NAME          .        DEPTH:                     
BellyRiver          .    516    :                       
BasalBellyRiver     .    753    :                       
LeaPark             .    768    :                       
Colorado            .    892    :                       
MedicineHat         .    1032   :                       
BaseFishScales      .    1273   :                       
Viking              .    1307   :                       
Joli Fou            .    1372   :                       
Mannville           .    1402   :                       
MedicineRiverCoal   .    1469   :                       
Glauconitic         .    1499   :                       
TopPorosity         .    1502.5 :                       
Ostracod            .    1514.5 :                       
Ellerslie           .    1540   :                       
Pekisko             .    1554   :                       
TD                  .    1572   :                       
~A                                                      
# ...
7.4750000e+02   2.8527500e+02   2.4595381e+03   4.4426000e+01   5.6377200e+02   3.2800000e-01   
7.4762500e+02   2.9047500e+02   2.4395281e+03   4.4125000e+01   5.7504400e+02   3.2900000e-01   
7.4775000e+02   2.9742400e+02   2.4116040e+03   4.4321000e+01   5.9113300e+02   3.3100000e-01   
7.4787500e+02   3.0571100e+02   2.3880691e+03   4.5551000e+01   6.1060800e+02   3.3300000e-01   
7.4800000e+02   3.1553100e+02   2.3691909e+03   4.7767000e+01   6.3182800e+02   3.3400000e-01   
7.4812500e+02   3.2578300e+02   2.3607170e+03   4.9664000e+01   6.5775900e+02   3.3700000e-01   
7.4825000e+02   3.3543200e+02   2.3697251e+03   5.0867000e+01   6.9014600e+02   3.4500000e-01   
7.4837500e+02   3.4486400e+02   2.3914961e+03   5.1780000e+01   7.2602500e+02   3.5400000e-01   
7.4850000e+02   3.5399500e+02   2.4063201e+03   5.3543000e+01   7.6518400e+02   3.6400000e-01   
7.4862500e+02   3.6241300e+02   2.3925530e+03   5.6097000e+01   8.0608900e+02   3.7300000e-01   
7.4875000e+02   3.6971000e+02   2.3646130e+03   5.8477000e+01   8.4402900e+02   3.8100000e-01   
7.4887500e+02   3.7607800e+02   2.3541890e+03   5.9864000e+01   8.7408100e+02   3.8600000e-01   
7.4900000e+02   3.8102200e+02   2.3650681e+03   5.9899000e+01   8.9439700e+02   3.8900000e-01   
7.4912500e+02   3.8402400e+02   2.3705959e+03   6.0134000e+01   9.0487000e+02   3.9000000e-01   
7.4925000e+02   3.8648500e+02   2.3375891e+03   6.1097000e+01   9.0396600e+02   3.8800000e-01   
7.4937500e+02   3.8804000e+02   2.2605750e+03   6.2464000e+01   8.9157800e+02   3.8300000e-01   
7.4950000e+02   3.9047700e+02   2.1819690e+03   6.3421000e+01   8.6770800e+02   3.7300000e-01   
7.4962500e+02   3.9425400e+02   2.1502170e+03   6.4249000e+01   8.3696100e+02   3.5700000e-01   
7.4975000e+02   3.8537600e+02   2.1788240e+03   6.4467000e+01   7.9351100e+02   3.4600000e-01   
7.4987500e+02   3.6550500e+02   2.2508579e+03   6.4287000e+01   7.4461500e+02   3.4100000e-01   
7.5000000e+02   3.4396300e+02   2.3392439e+03   6.3929000e+01   7.0000800e+02   3.4100000e-01   
7.5012500e+02   3.2716500e+02   2.4104651e+03   6.3595000e+01   6.6646500e+02   3.4100000e-01   
7.5025000e+02   3.1380200e+02   2.4311890e+03   6.2754000e+01   6.4747400e+02   3.4600000e-01   
7.5037500e+02   3.1587800e+02   2.4074131e+03   6.2117000e+01   6.5552900e+02   3.4900000e-01   
7.5050000e+02   3.2990000e+02   2.3673770e+03   6.2680000e+01   6.8379500e+02   3.4800000e-01   
7.5062500e+02   3.4660600e+02   2.3197080e+03   6.4172000e+01   7.1946300e+02   3.4900000e-01   
7.5075000e+02   3.5768600e+02   2.2720979e+03   6.6659000e+01   7.5862300e+02   3.5700000e-01   
7.5087500e+02   3.6429300e+02   2.2378169e+03   6.9294000e+01   7.9185100e+02   3.6600000e-01   
7.5100000e+02   3.6822400e+02   2.2235581e+03   6.9985000e+01   8.1084200e+02   3.7000000e-01   
7.5112500e+02   3.6848600e+02   2.2289109e+03   6.8142000e+01   8.1353300e+02   3.7100000e-01   
7.5125000e+02   3.6555300e+02   2.2448521e+03   6.4461000e+01   8.0596200e+02   3.7100000e-01   
7.5137500e+02   3.6125900e+02   2.2433821e+03   6.0333000e+01   7.8854800e+02   3.6700000e-01   
7.5150000e+02   3.5433300e+02   2.2008750e+03   5.7330000e+01   7.6589800e+02   3.6400000e-01   
7.5162500e+02   3.4533400e+02   2.1478269e+03   5.6668000e+01   7.4139700e+02   3.6100000e-01   
7.5175000e+02   3.3469500e+02   2.1357539e+03   5.6956000e+01   7.1679100e+02   3.6100000e-01   
7.5187500e+02   3.2362200e+02   2.1833210e+03   5.7641000e+01   6.9218500e+02   3.6000000e-01   
7.5200000e+02   3.1224700e+02   2.2803860e+03   5.8503000e+01   6.6911500e+02   3.6100000e-01   
7.5212500e+02   3.0348100e+02   2.3924771e+03   5.9780000e+01   6.4922000e+02   3.6000000e-01   
7.5225000e+02   2.9780200e+02   2.4684121e+03   6.1514000e+01   6.3107000e+02   3.5700000e-01   
7.5237500e+02   2.9559700e+02   2.4933550e+03   6.3719000e+01   6.1763100e+02   3.5100000e-01   
7.5250000e+02   2.9557400e+02   2.4925649e+03   6.5593000e+01   6.0911400e+02   3.4600000e-01   
7.5262500e+02   2.9658800e+02   2.4859380e+03   6.5809000e+01   6.0551800e+02   3.4200000e-01   
7.5275000e+02   2.9691200e+02   2.4692080e+03   6.3128000e+01   6.0223700e+02   3.3900000e-01   
7.5287500e+02   2.9661100e+02   2.4424800e+03   5.8396000e+01   6.0049200e+02   3.3900000e-01   
7.5300000e+02   2.9620000e+02   2.4126851e+03   5.3593000e+01   6.0192200e+02   3.4000000e-01   
7.5312500e+02   2.9609200e+02   2.3886550e+03   5.0876000e+01   6.0202700e+02   3.4000000e-01   
7.5325000e+02   2.9609200e+02   2.3693149e+03   5.0726000e+01   5.9895600e+02   3.3800000e-01   
7.5337500e+02   2.9639400e+02   2.3566809e+03   5.1273000e+01   5.9721100e+02   3.3700000e-01   
7.5350000e+02   2.9771000e+02   2.3495540e+03   5.0217000e+01   5.9710600e+02   3.3500000e-01   
7.5362500e+02   2.9965200e+02   2.3431021e+03   4.8042000e+01   5.9403500e+02   3.2900000e-01   
7.5375000e+02   3.0109900e+02   2.3331001e+03   4.6099000e+01   5.9075400e+02   3.2500000e-01   
7.5387500e+02   3.0172500e+02   2.3179360e+03   4.5094000e+01   5.8900900e+02   3.2200000e-01   
7.5400000e+02   3.0153200e+02   2.3038140e+03   4.4831000e+01   5.8890400e+02   3.2200000e-01   
7.5412500e+02   2.9961300e+02   2.3041001e+03   4.4348000e+01   5.8122700e+02   3.1900000e-01   
7.5425000e+02   2.9685000e+02   2.3289580e+03   4.3169000e+01   5.7302500e+02   3.1700000e-01   
7.5437500e+02   2.9397900e+02   2.3739751e+03   4.2023000e+01   5.6789400e+02   3.1700000e-01   
7.5450000e+02   2.9171200e+02   2.4167471e+03   4.1710000e+01   5.6604300e+02   3.1900000e-01   
7.5462500e+02   2.9086900e+02   2.4284380e+03   4.2369000e+01   5.6747300e+02   3.2200000e-01   
7.5475000e+02   2.9227000e+02   2.4041870e+03   4.3422000e+01   5.7679000e+02   3.2700000e-01   
7.5487500e+02   2.9462200e+02   2.3656379e+03   4.4362000e+01   5.8816800e+02   3.3300000e-01   
7.5500000e+02   2.9738500e+02   2.3391709e+03   4.5157000e+01   5.9811500e+02   3.3600000e-01   
7.5512500e+02   3.0025500e+02   2.3329609e+03   4.6063000e+01   6.0488700e+02   3.3700000e-01   
7.5525000e+02   3.0252200e+02   2.3386289e+03   4.6876000e+01   6.0684300e+02   3.3500000e-01   
7.5537500e+02   3.0306400e+02   2.3460891e+03   4.7406000e+01   6.0694800e+02   3.3400000e-01   
7.5550000e+02   3.0276200e+02   2.3524431e+03   4.7802000e+01   6.0694800e+02   3.3400000e-01   
7.5562500e+02   3.0235200e+02   2.3569880e+03   4.7877000e+01   6.0694800e+02   3.3500000e-01   
7.5575000e+02   3.0194200e+02   2.3621150e+03   4.7753000e+01   6.0541300e+02   3.3400000e-01   
7.5587500e+02   3.0153200e+02   2.3705210e+03   4.8109000e+01   6.0377200e+02   3.3400000e-01   
7.5600000e+02   3.0142400e+02   2.3775491e+03   4.9155000e+01   6.0213200e+02   3.3300000e-01   
7.5612500e+02   3.0142400e+02   2.3794380e+03   4.9800000e+01   6.0049200e+02   3.3200000e-01   
7.5625000e+02   3.0142400e+02   2.3751021e+03   4.9773000e+01   5.9885100e+02   3.3000000e-01   
7.5637500e+02   3.0172500e+02   2.3679619e+03   4.9325000e+01   6.0028100e+02   3.3100000e-01   
7.5650000e+02   3.0213500e+02   2.3627549e+03   4.9259000e+01   6.0192200e+02   3.3200000e-01   
7.5662500e+02   3.0314900e+02   2.3604600e+03   4.9914000e+01   6.0509700e+02   3.3200000e-01   
7.5675000e+02   3.0498300e+02   2.3548630e+03   5.0983000e+01   6.0991300e+02   3.3300000e-01   
7.5687500e+02   3.0733500e+02   2.3464910e+03   5.1708000e+01   6.1637000e+02   3.3500000e-01   
7.5700000e+02   3.0979600e+02   2.3407839e+03   5.1173000e+01   6.2293100e+02   3.3600000e-01   
7.5712500e+02   3.1225700e+02   2.3420720e+03   5.0198000e+01   6.2949300e+02   3.3700000e-01   
7.5725000e+02   3.1381200e+02   2.3523950e+03   4.9878000e+01   6.3298400e+02   3.3700000e-01   
7.5737500e+02   3.1413700e+02   2.3652849e+03   4.9957000e+01   6.3319400e+02   3.3700000e-01   
7.5750000e+02   3.1323100e+02   2.3735730e+03   4.9612000e+01   6.3012400e+02   3.3600000e-01   
7.5762500e+02   3.1109500e+02   2.3747539e+03   4.9769000e+01   6.2377300e+02   3.3400000e-01   
7.5775000e+02   3.0803100e+02   2.3719680e+03   4.9568000e+01   6.1567600e+02   3.3300000e-01   
