~VERSION INFORMATION                                    
VERS.   2.0        : LAS LOG ASCII STANDARD VERSION 2.0 
WRAP.   NO         : ONE LINE PER DEPTH STEP            
~WELL INFORMATION                                       
STRT.M   208.0000                     :                 
STOP.M   1569.1250                    :                 
STEP.M   0.1250                       :                 
NULL.    -999.25                      :                 
WELL.    Alberta Well     : Well Name       
OPER.                                 : Operator        
FLD .                                 : Field           
DATE.                                 : Date Logged     
SRVC.                                 : Service Company 
UWI .                                 : UNIQUE WELL ID  
LSD .                                 : LSD             
SEC .                                 : Section         
TWP .                                 : Township        
RGE .                                 : Range           
MER .                                 : Meridian        
LOC .                                 : Location Descrip
~PARAMETER                                              
EKB.M   977.400    : ELEVATION KB                       
EGL.M   973.3000   : GL Elevation                       
TLI.M   208.0000   : Log Run Top                        
BLI.M   1586.0000  : Log Run Base                       
~CURVE                                                  
DEPT   .M                   : 1 DEPTH                   
DTP    .usec/m              : 2 DTP                     
RHOB   .kg/m3               : 3 RHOB                    
GR     .API      UNITS      : 4 GR                      
DTS    .usec/m              : 5 DTS                     
POISSON.NO       UNITS      : 6 POISSON                 
~TOPS                                                   
#TOPS NAME          .        DEPTH:                     
BellyRiver          .    516    :                       
BasalBellyRiver     .    753    :                       
LeaPark             .    768    :                       
Colorado            .    892    :                       
MedicineHat         .    1032   :                       
BaseFishScales      .    1273   :                       
Viking              .    1307   :                       
Joli Fou            .    1372   :                       
Mannville           .    1402   :                       
MedicineRiverCoal   .    1469   :                       
Glauconitic         .    1499   :                       
TopPorosity         .    1502.5 :                       
Ostracod            .    1514.5 :                       
Ellerslie           .    1540   :                       
Pekisko             .    1554   :                       
TD                  .    1572   :                       
~A                                                      
# ...
1.3803750e+03   3.1445700e+02   2.3942261e+03   8.7680000e+01   7.0983900e+02   3.7800000e-01   
1.3805000e+03   3.1379600e+02   2.3928831e+03   8.6896000e+01   7.1272900e+02   3.8000000e-01   
1.3806250e+03   3.1340300e+02   2.4004060e+03   8.6613000e+01   7.1660200e+02   3.8200000e-01   
1.3807500e+03   3.1394200e+02   2.4309761e+03   9.1114000e+01   7.2730300e+02   3.8600000e-01   
1.3808750e+03   3.1516300e+02   2.4406130e+03   9.3201000e+01   7.3259400e+02   3.8600000e-01   
1.3810000e+03   3.1710000e+02   2.4380330e+03   9.3711000e+01   7.3722900e+02   3.8600000e-01   
1.3811250e+03   3.1983700e+02   2.4311760e+03   9.4018000e+01   7.4274400e+02   3.8600000e-01   
1.3812500e+03   3.2327200e+02   2.4247019e+03   9.4238000e+01   7.5077800e+02   3.8600000e-01   
1.3813750e+03   3.2706200e+02   2.4172361e+03   9.4596000e+01   7.5990100e+02   3.8600000e-01   
1.3815000e+03   3.3097700e+02   2.4033069e+03   9.3734000e+01   7.7062200e+02   3.8700000e-01   
1.3816250e+03   3.3461300e+02   2.3769561e+03   9.1825000e+01   7.8175600e+02   3.8800000e-01   
1.3817500e+03   3.3741500e+02   2.3386240e+03   8.9648000e+01   7.8922600e+02   3.8800000e-01   
1.3818750e+03   3.3863000e+02   2.3034961e+03   8.8373000e+01   7.8968900e+02   3.8700000e-01   
1.3820000e+03   3.3767800e+02   2.2921670e+03   8.8502000e+01   7.8324000e+02   3.8600000e-01   
1.3821250e+03   3.3442900e+02   2.3118291e+03   8.9111000e+01   7.7021000e+02   3.8400000e-01   
1.3822500e+03   3.2912500e+02   2.3569600e+03   8.9862000e+01   7.5215300e+02   3.8200000e-01   
1.3823750e+03   3.2233600e+02   2.4146931e+03   9.0685000e+01   7.3255200e+02   3.8000000e-01   
1.3825000e+03   3.1532100e+02   2.4671570e+03   9.1565000e+01   7.1440200e+02   3.7900000e-01   
1.3826250e+03   3.0943600e+02   2.4972290e+03   9.3444000e+01   7.0004300e+02   3.7900000e-01   
1.3827500e+03   3.0496700e+02   2.5156079e+03   9.6616000e+01   6.9023400e+02   3.7900000e-01   
1.3828750e+03   3.0201300e+02   2.5151260e+03   9.9383000e+01   6.8440400e+02   3.7900000e-01   
1.3830000e+03   2.9954600e+02   2.4848159e+03   1.0221400e+02   6.8050100e+02   3.8000000e-01   
1.3831250e+03   2.9895000e+02   2.4801399e+03   1.0215900e+02   6.7951700e+02   3.8000000e-01   
1.3832500e+03   2.9873800e+02   2.4794209e+03   1.0200000e+02   6.7853200e+02   3.8000000e-01   
1.3833750e+03   2.9889800e+02   2.4868059e+03   1.0235200e+02   6.7724100e+02   3.7900000e-01   
1.3835000e+03   2.9950600e+02   2.4929771e+03   1.0328000e+02   6.7592900e+02   3.7800000e-01   
1.3836250e+03   3.0048600e+02   2.4900950e+03   1.0453000e+02   6.7553800e+02   3.7700000e-01   
1.3837500e+03   3.0173300e+02   2.4835210e+03   1.0577600e+02   6.7643800e+02   3.7600000e-01   
1.3838750e+03   3.0304600e+02   2.4808191e+03   1.0654700e+02   6.7711500e+02   3.7500000e-01   
1.3840000e+03   3.0429700e+02   2.4822590e+03   1.0644200e+02   6.7777100e+02   3.7400000e-01   
1.3841250e+03   3.0528600e+02   2.4779390e+03   1.0521400e+02   6.7750600e+02   3.7300000e-01   
1.3842500e+03   3.0600700e+02   2.4641340e+03   1.0416900e+02   6.7502900e+02   3.7100000e-01   
1.3843750e+03   3.0630100e+02   2.4546111e+03   1.0398300e+02   6.7056200e+02   3.6800000e-01   
1.3845000e+03   3.0610300e+02   2.4649390e+03   1.0458900e+02   6.6596900e+02   3.6600000e-01   
1.3846250e+03   3.0553400e+02   2.4894561e+03   1.0575100e+02   6.6168300e+02   3.6500000e-01   
1.3847500e+03   3.0487800e+02   2.5139319e+03   1.0629300e+02   6.5864600e+02   3.6400000e-01   
1.3848750e+03   3.0428200e+02   2.5246541e+03   1.0550900e+02   6.5753500e+02   3.6400000e-01   
1.3850000e+03   3.0407000e+02   2.5210330e+03   1.0486600e+02   6.5839400e+02   3.6400000e-01   
1.3851250e+03   3.0435000e+02   2.5131350e+03   1.0446600e+02   6.5968500e+02   3.6500000e-01   
1.3852500e+03   3.0580000e+02   2.5127639e+03   1.0550800e+02   6.6294500e+02   3.6500000e-01   
1.3853750e+03   3.0656000e+02   2.5050750e+03   1.0636700e+02   6.6550600e+02   3.6500000e-01   
1.3855000e+03   3.0705700e+02   2.4899460e+03   1.0680000e+02   6.6905200e+02   3.6700000e-01   
1.3856250e+03   3.0716500e+02   2.4777729e+03   1.0641000e+02   6.7388900e+02   3.6900000e-01   
1.3857500e+03   3.0698400e+02   2.4759180e+03   1.0488000e+02   6.7911700e+02   3.7200000e-01   
1.3858750e+03   3.0661700e+02   2.4805381e+03   1.0314400e+02   6.8436700e+02   3.7400000e-01   
1.3860000e+03   3.0620700e+02   2.4854221e+03   1.0232000e+02   6.8746600e+02   3.7600000e-01   
1.3861250e+03   3.0597800e+02   2.4838279e+03   1.0231800e+02   6.8673400e+02   3.7600000e-01   
1.3862500e+03   3.0617600e+02   2.4699839e+03   1.0291000e+02   6.8298700e+02   3.7400000e-01   
1.3863750e+03   3.0656500e+02   2.4249480e+03   1.0323300e+02   6.7690000e+02   3.7100000e-01   
1.3865000e+03   3.0691400e+02   2.3517729e+03   1.0250600e+02   6.6882500e+02   3.6700000e-01   
1.3866250e+03   3.0694000e+02   2.2875950e+03   1.0047400e+02   6.6062300e+02   3.6200000e-01   
1.3867500e+03   3.0625500e+02   2.2528401e+03   9.6499000e+01   6.5364900e+02   3.5900000e-01   
1.3868750e+03   3.0450800e+02   2.2387629e+03   9.4131000e+01   6.4706600e+02   3.5800000e-01   
1.3870000e+03   3.0191400e+02   2.2340000e+03   9.3760000e+01   6.4142600e+02   3.5800000e-01   
1.3871250e+03   2.9876300e+02   2.2396011e+03   9.6191000e+01   6.3707700e+02   3.5900000e-01   
1.3872500e+03   2.9536100e+02   2.2655830e+03   9.8817000e+01   6.3342600e+02   3.6100000e-01   
1.3873750e+03   2.9227900e+02   2.3223440e+03   1.0085600e+02   6.3135200e+02   3.6400000e-01   
1.3875000e+03   2.8986900e+02   2.3931919e+03   1.0053000e+02   6.3122600e+02   3.6600000e-01   
1.3876250e+03   2.8781300e+02   2.4688120e+03   1.0019400e+02   6.3405200e+02   3.7000000e-01   
1.3877500e+03   2.8802800e+02   2.4680830e+03   1.0111400e+02   6.3663500e+02   3.7100000e-01   
1.3878750e+03   2.8849800e+02   2.4577051e+03   1.0190400e+02   6.3895300e+02   3.7200000e-01   
1.3880000e+03   2.8899100e+02   2.4516450e+03   1.0215000e+02   6.4186300e+02   3.7300000e-01   
1.3881250e+03   2.8912100e+02   2.4589260e+03   1.0144500e+02   6.4512300e+02   3.7400000e-01   
1.3882500e+03   2.8887900e+02   2.4773540e+03   9.9979000e+01   6.4840400e+02   3.7600000e-01   
1.3883750e+03   2.8855100e+02   2.5131499e+03   9.7506000e+01   6.5291300e+02   3.7900000e-01   
1.3885000e+03   2.8852500e+02   2.5624600e+03   9.5055000e+01   6.5812000e+02   3.8100000e-01   
1.3886250e+03   2.8902900e+02   2.6066060e+03   9.3266000e+01   6.6183400e+02   3.8200000e-01   
1.3887500e+03   2.9016800e+02   2.6103440e+03   9.3521000e+01   6.6544300e+02   3.8300000e-01   
1.3888750e+03   2.9178300e+02   2.5660481e+03   9.6422000e+01   6.6843800e+02   3.8200000e-01   
1.3890000e+03   2.9344500e+02   2.5045171e+03   1.0069900e+02   6.6924100e+02   3.8100000e-01   
1.3891250e+03   2.9484400e+02   2.4633120e+03   1.0395900e+02   6.6959000e+02   3.8000000e-01   
1.3892500e+03   2.9585400e+02   2.4536531e+03   1.0493700e+02   6.7145400e+02   3.8000000e-01   
1.3893750e+03   2.9663500e+02   2.4651580e+03   1.0418200e+02   6.7403600e+02   3.8000000e-01   
1.3895000e+03   2.9737400e+02   2.4745811e+03   1.0219700e+02   6.7788900e+02   3.8100000e-01   
1.3896250e+03   2.9853400e+02   2.4701201e+03   1.0097000e+02   6.8397500e+02   3.8200000e-01   
1.3897500e+03   3.0045000e+02   2.4547141e+03   1.0058800e+02   6.9051600e+02   3.8300000e-01   
1.3898750e+03   3.0300500e+02   2.4346279e+03   1.0141700e+02   6.9677100e+02   3.8300000e-01   
1.3900000e+03   3.0957500e+02   2.3801270e+03   1.0088400e+02   7.0796700e+02   3.8200000e-01   
1.3901250e+03   3.1312300e+02   2.3325540e+03   9.8698000e+01   7.1323800e+02   3.8100000e-01   
1.3902500e+03   3.1634800e+02   2.2969690e+03   9.7564000e+01   7.1879400e+02   3.8000000e-01   
1.3903750e+03   3.1922400e+02   2.2855071e+03   9.7531000e+01   7.2467800e+02   3.8000000e-01   
1.3905000e+03   3.2146900e+02   2.2905681e+03   9.8189000e+01   7.3089100e+02   3.8000000e-01   
1.3906250e+03   3.2267500e+02   2.2887280e+03   9.9139000e+01   7.3712400e+02   3.8100000e-01   
