~VERSION INFORMATION                                    
VERS.   2.0        : LAS LOG ASCII STANDARD VERSION 2.0 
WRAP.   NO         : ONE LINE PER DEPTH STEP            
~WELL INFORMATION                                       
STRT.M   208.0000                     :                 
STOP.M   1569.1250                    :                 
STEP.M   0.1250                       :                 
NULL.    -999.25                      :                 
WELL.    Alberta Well     : Well Name       
OPER.                                 : Operator        
FLD .                                 : Field           
DATE.                                 : Date Logged     
SRVC.                                 : Service Company 
UWI .                                 : UNIQUE WELL ID  
LSD .                                 : LSD             
SEC .                                 : Section         
TWP .                                 : Township        
RGE .                                 : Range           
MER .                                 : Meridian        
LOC .                                 : Location Descrip
~PARAMETER                                              
EKB.M   977.400    : ELEVATION KB                       
EGL.M   973.3000   : GL Elevation                       
TLI.M   208.0000   : Log Run Top                        
BLI.M   1586.0000  : Log Run Base                       
~CURVE                                                  
DEPT   .M                   : 1 DEPTH                   
DTP    .usec/m              : 2 DTP                     
RHOB   .kg/m3               : 3 RHOB                    
GR     .API      UNITS      : 4 GR                      
DTS    .usec/m              : 5 DTS                     
POISSON.NO       UNITS      : 6 POISSON                 
~TOPS                                                   
#TOPS NAME          .        DEPTH:                     
BellyRiver          .    516    :                       
BasalBellyRiver     .    753    :                       
LeaPark             .    768    :                       
Colorado            .    892    :                       
MedicineHat         .    1032   :                       
BaseFishScales      .    1273   :                       
Viking              .    1307   :                       
Joli Fou            .    1372   :                       
Mannville           .    1402   :                       
MedicineRiverCoal   .    1469   :                       
Glauconitic         .    1499   :                       
TopPorosity         .    1502.5 :                       
Ostracod            .    1514.5 :                       
Ellerslie           .    1540   :                       
Pekisko             .    1554   :                       
TD                  .    1572   :                       
~A                                                      
# ...
1.1936250e+03   2.9620000e+02   2.5256970e+03   1.2346400e+02   6.0694800e+02   3.4400000e-01   
1.1937500e+03   2.9609200e+02   2.5283630e+03   1.2307500e+02   6.0541300e+02   3.4300000e-01   
1.1938750e+03   2.9609200e+02   2.5291931e+03   1.2205700e+02   6.0377200e+02   3.4200000e-01   
1.1940000e+03   2.9579000e+02   2.5281899e+03   1.2058100e+02   6.0213200e+02   3.4100000e-01   
1.1941250e+03   2.9568200e+02   2.5266731e+03   1.1944000e+02   5.9895600e+02   3.3900000e-01   
1.1942500e+03   2.9538000e+02   2.5254751e+03   1.1935000e+02   5.9567500e+02   3.3700000e-01   
1.1943750e+03   2.9466800e+02   2.5240701e+03   1.1993000e+02   5.9393000e+02   3.3700000e-01   
1.1945000e+03   2.9415000e+02   2.5225520e+03   1.2105500e+02   5.9228900e+02   3.3600000e-01   
1.1946250e+03   2.9404200e+02   2.5204771e+03   1.2256700e+02   5.8911400e+02   3.3400000e-01   
1.1947500e+03   2.9343800e+02   2.5185049e+03   1.2342700e+02   5.8736800e+02   3.3400000e-01   
1.1948750e+03   2.9119400e+02   2.5215430e+03   1.2454100e+02   5.7937700e+02   3.3100000e-01   
1.1950000e+03   2.8864800e+02   2.5277490e+03   1.2405800e+02   5.7292000e+02   3.3000000e-01   
1.1951250e+03   2.8487200e+02   2.5364700e+03   1.2328700e+02   5.6635900e+02   3.3100000e-01   
1.1952500e+03   2.8107300e+02   2.5442400e+03   1.2311100e+02   5.5826200e+02   3.3000000e-01   
1.1953750e+03   2.7738200e+02   2.5471641e+03   1.2302700e+02   5.5313000e+02   3.3200000e-01   
1.1955000e+03   2.7459600e+02   2.5447371e+03   1.2341300e+02   5.4974400e+02   3.3400000e-01   
1.1956250e+03   2.7364500e+02   2.5389890e+03   1.2444000e+02   5.4799900e+02   3.3400000e-01   
1.1957500e+03   2.7414000e+02   2.5315769e+03   1.2761300e+02   5.4789400e+02   3.3300000e-01   
1.1958750e+03   2.7556400e+02   2.5237720e+03   1.3408100e+02   5.5096400e+02   3.3300000e-01   
1.1960000e+03   2.7811000e+02   2.5152109e+03   1.4138000e+02   5.5271000e+02   3.3000000e-01   
1.1961250e+03   2.8067900e+02   2.5065081e+03   1.4467400e+02   5.5281500e+02   3.2600000e-01   
1.1962500e+03   2.8283800e+02   2.4990540e+03   1.4243200e+02   5.5281500e+02   3.2300000e-01   
1.1963750e+03   2.8428500e+02   2.4924390e+03   1.3631700e+02   5.5281500e+02   3.2000000e-01   
1.1965000e+03   2.8521300e+02   2.4849580e+03   1.2981000e+02   5.4974400e+02   3.1600000e-01   
1.1966250e+03   2.8543000e+02   2.4783020e+03   1.2491500e+02   5.4799900e+02   3.1400000e-01   
1.1967500e+03   2.8512800e+02   2.4755139e+03   1.2097400e+02   5.4635800e+02   3.1300000e-01   
1.1968750e+03   2.8441600e+02   2.4766230e+03   1.1697200e+02   5.4471800e+02   3.1300000e-01   
1.1970000e+03   2.8389700e+02   2.4786780e+03   1.1436100e+02   5.4307800e+02   3.1200000e-01   
1.1971250e+03   2.8318600e+02   2.4803879e+03   1.1431100e+02   5.4297200e+02   3.1300000e-01   
1.1972500e+03   2.8266700e+02   2.4817710e+03   1.1597500e+02   5.4143700e+02   3.1300000e-01   
1.1973750e+03   2.8255900e+02   2.4837109e+03   1.1756400e+02   5.4133200e+02   3.1300000e-01   
1.1975000e+03   2.8255900e+02   2.4860430e+03   1.1796000e+02   5.4133200e+02   3.1300000e-01   
1.1976250e+03   2.8225700e+02   2.4851040e+03   1.1699200e+02   5.3979700e+02   3.1200000e-01   
1.1977500e+03   2.8184700e+02   2.4786121e+03   1.1626700e+02   5.3662100e+02   3.1000000e-01   
1.1978750e+03   2.8023000e+02   2.4707991e+03   1.1698100e+02   5.3334000e+02   3.0900000e-01   
1.1980000e+03   2.7727400e+02   2.4667781e+03   1.1885200e+02   5.2852400e+02   3.1000000e-01   
1.1981250e+03   2.7338900e+02   2.4697310e+03   1.1862300e+02   5.2206800e+02   3.1100000e-01   
1.1982500e+03   2.6928800e+02   2.4822261e+03   1.1377300e+02   5.1704100e+02   3.1400000e-01   
1.1983750e+03   2.6548900e+02   2.4980779e+03   1.0470200e+02   5.1519100e+02   3.1900000e-01   
1.1985000e+03   2.6300500e+02   2.5030950e+03   9.4764000e+01   5.1355000e+02   3.2200000e-01   
1.1986250e+03   2.6276600e+02   2.4896270e+03   8.8205000e+01   5.1651600e+02   3.2500000e-01   
1.1987500e+03   2.6498700e+02   2.4593210e+03   8.7055000e+01   5.2286700e+02   3.2700000e-01   
1.1988750e+03   2.6966800e+02   2.4233301e+03   8.9459000e+01   5.3249900e+02   3.2800000e-01   
1.1990000e+03   2.7590500e+02   2.3957109e+03   9.2556000e+01   5.4234200e+02   3.2500000e-01   
1.1991250e+03   2.8246700e+02   2.3813879e+03   9.4485000e+01   5.5218400e+02   3.2300000e-01   
1.1992500e+03   2.8872700e+02   2.3764509e+03   9.5624000e+01   5.6049100e+02   3.1900000e-01   
1.1993750e+03   2.9397300e+02   2.3776570e+03   9.6695000e+01   5.6869300e+02   3.1800000e-01   
1.1995000e+03   2.9768700e+02   2.3829509e+03   9.7984000e+01   5.7536000e+02   3.1700000e-01   
1.1996250e+03   3.0006200e+02   2.3908979e+03   9.8686000e+01   5.8038600e+02   3.1800000e-01   
1.1997500e+03   3.0181100e+02   2.3993259e+03   9.8370000e+01   5.8530700e+02   3.1900000e-01   
1.1998750e+03   3.0254600e+02   2.4056909e+03   9.7270000e+01   5.8869300e+02   3.2100000e-01   
1.2000000e+03   3.0265400e+02   2.4090210e+03   9.6841000e+01   5.9043900e+02   3.2200000e-01   
1.2001250e+03   3.0205000e+02   2.4121379e+03   9.7157000e+01   5.8900900e+02   3.2200000e-01   
1.2002500e+03   3.0123000e+02   2.4168181e+03   9.7690000e+01   5.8736800e+02   3.2200000e-01   
1.2003750e+03   3.0010800e+02   2.4228879e+03   9.7389000e+01   5.8572800e+02   3.2200000e-01   
1.2005000e+03   2.9917900e+02   2.4287429e+03   9.5633000e+01   5.8408800e+02   3.2200000e-01   
1.2006250e+03   2.9835900e+02   2.4319719e+03   9.3814000e+01   5.8244700e+02   3.2200000e-01   
1.2007500e+03   2.9814300e+02   2.4314719e+03   9.3116000e+01   5.8387700e+02   3.2400000e-01   
1.2008750e+03   2.9844500e+02   2.4294570e+03   9.3389000e+01   5.8551800e+02   3.2500000e-01   
1.2010000e+03   2.9945800e+02   2.4285449e+03   9.4267000e+01   5.8869300e+02   3.2500000e-01   
1.2011250e+03   3.0099000e+02   2.4296899e+03   9.5256000e+01   5.9197400e+02   3.2600000e-01   
1.2012500e+03   3.0263100e+02   2.4315791e+03   9.6102000e+01   5.9679000e+02   3.2700000e-01   
1.2013750e+03   3.0396900e+02   2.4327090e+03   9.6286000e+01   6.0017600e+02   3.2700000e-01   
1.2015000e+03   3.0489800e+02   2.4335730e+03   9.5622000e+01   6.0345700e+02   3.2900000e-01   
1.2016250e+03   3.0571800e+02   2.4351541e+03   9.4330000e+01   6.0520300e+02   3.2900000e-01   
1.2017500e+03   3.0593500e+02   2.4372100e+03   9.3874000e+01   6.0530800e+02   3.2800000e-01   
1.2018750e+03   3.0563300e+02   2.4388560e+03   9.4966000e+01   6.0223700e+02   3.2700000e-01   
1.2020000e+03   3.0461900e+02   2.4391509e+03   9.7070000e+01   5.9742100e+02   3.2400000e-01   
1.2021250e+03   3.0278500e+02   2.4431699e+03   9.7121000e+01   5.8942900e+02   3.2100000e-01   
1.2022500e+03   2.9922600e+02   2.4574519e+03   9.3447000e+01   5.7969200e+02   3.1800000e-01   
1.2023750e+03   2.9421900e+02   2.4820710e+03   8.8654000e+01   5.6831400e+02   3.1700000e-01   
1.2025000e+03   2.8798200e+02   2.5085979e+03   8.7086000e+01   5.5529600e+02   3.1600000e-01   
1.2026250e+03   2.8111900e+02   2.5298879e+03   8.9459000e+01   5.4370800e+02   3.1800000e-01   
1.2027500e+03   2.7475100e+02   2.5433210e+03   9.4042000e+01   5.3376100e+02   3.2000000e-01   
1.2028750e+03   2.7010800e+02   2.5520149e+03   9.8736000e+01   5.2391800e+02   3.1900000e-01   
1.2030000e+03   2.6630900e+02   2.5578040e+03   1.0274700e+02   5.1714700e+02   3.2000000e-01   
1.2031250e+03   2.6322200e+02   2.5612361e+03   1.0564000e+02   5.1212000e+02   3.2000000e-01   
1.2032500e+03   2.5961600e+02   2.5653279e+03   1.0481400e+02   5.0063700e+02   3.1600000e-01   
1.2033750e+03   2.5797600e+02   2.5662781e+03   9.8928000e+01   4.9725100e+02   3.1600000e-01   
1.2035000e+03   2.5724100e+02   2.5662090e+03   9.2318000e+01   4.9397100e+02   3.1400000e-01   
1.2036250e+03   2.5834000e+02   2.5651990e+03   8.8492000e+01   4.9222500e+02   3.1000000e-01   
1.2037500e+03   2.6088600e+02   2.5646670e+03   8.7569000e+01   4.9365500e+02   3.0600000e-01   
1.2038750e+03   2.6436000e+02   2.5669041e+03   8.9645000e+01   4.9683100e+02   3.0300000e-01   
