~VERSION INFORMATION                                    
VERS.   2.0        : LAS LOG ASCII STANDARD VERSION 2.0 
WRAP.   NO         : ONE LINE PER DEPTH STEP            
~WELL INFORMATION                                       
STRT.M   208.0000                     :                 
STOP.M   1569.1250                    :                 
STEP.M   0.1250                       :                 
NULL.    -999.25                      :                 
WELL.    Alberta Well     : Well Name       
OPER.                                 : Operator        
FLD .                                 : Field           
DATE.                                 : Date Logged     
SRVC.                                 : Service Company 
UWI .                                 : UNIQUE WELL ID  
LSD .                                 : LSD             
SEC .                                 : Section         
TWP .                                 : Township        
RGE .                                 : Range           
MER .                                 : Meridian        
LOC .                                 : Location Descrip
~PARAMETER                                              
EKB.M   977.400    : ELEVATION KB                       
EGL.M   973.3000   : GL Elevation                       
TLI.M   208.0000   : Log Run Top                        
BLI.M   1586.0000  : Log Run Base                       
~CURVE                                                  
DEPT   .M                   : 1 DEPTH                   
DTP    .usec/m              : 2 DTP                     
RHOB   .kg/m3               : 3 RHOB                    
GR     .API      UNITS      : 4 GR                      
DTS    .usec/m              : 5 DTS                     
POISSON.NO       UNITS      : 6 POISSON                 
~TOPS                                                   
#TOPS NAME          .        DEPTH:                     
BellyRiver          .    516    :                       
BasalBellyRiver     .    753    :                       
LeaPark             .    768    :                       
Colorado            .    892    :                       
MedicineHat         .    1032   :                       
BaseFishScales      .    1273   :                       
Viking              .    1307   :                       
Joli Fou            .    1372   :                       
Mannville           .    1402   :                       
MedicineRiverCoal   .    1469   :                       
Glauconitic         .    1499   :                       
TopPorosity         .    1502.5 :                       
Ostracod            .    1514.5 :                       
Ellerslie           .    1540   :                       
Pekisko             .    1554   :                       
TD                  .    1572   :                       
~A                                                      
# ...
9.2387500e+02   2.9456000e+02   2.5586289e+03   1.0341400e+02   5.8715800e+02   3.3200000e-01   
9.2400000e+02   2.9445200e+02   2.5539619e+03   1.0333400e+02   5.8879900e+02   3.3300000e-01   
9.2412500e+02   2.9445200e+02   2.5505371e+03   1.0439600e+02   5.9043900e+02   3.3400000e-01   
9.2425000e+02   2.9445200e+02   2.5500940e+03   1.0668100e+02   5.9054400e+02   3.3500000e-01   
9.2437500e+02   2.9445200e+02   2.5528450e+03   1.0936500e+02   5.9207900e+02   3.3600000e-01   
9.2450000e+02   2.9415000e+02   2.5566550e+03   1.1058300e+02   5.9372000e+02   3.3700000e-01   
9.2462500e+02   2.9374000e+02   2.5589980e+03   1.0987900e+02   5.9536000e+02   3.3900000e-01   
9.2475000e+02   2.9363200e+02   2.5593540e+03   1.0805200e+02   5.9546500e+02   3.3900000e-01   
9.2487500e+02   2.9333000e+02   2.5584629e+03   1.0603100e+02   5.9546500e+02   3.4000000e-01   
9.2500000e+02   2.9261800e+02   2.5568191e+03   1.0504400e+02   5.9393000e+02   3.4000000e-01   
9.2512500e+02   2.9240100e+02   2.5544460e+03   1.0571100e+02   5.9228900e+02   3.3900000e-01   
9.2525000e+02   2.9240100e+02   2.5523169e+03   1.0680200e+02   5.9064900e+02   3.3800000e-01   
9.2537500e+02   2.9240100e+02   2.5515901e+03   1.0762700e+02   5.9054400e+02   3.3800000e-01   
9.2550000e+02   2.9270300e+02   2.5517451e+03   1.0849000e+02   5.9207900e+02   3.3800000e-01   
9.2562500e+02   2.9341500e+02   2.5514309e+03   1.0932800e+02   5.9372000e+02   3.3800000e-01   
9.2575000e+02   2.9423500e+02   2.5501050e+03   1.0977500e+02   5.9536000e+02   3.3800000e-01   
9.2587500e+02   2.9505500e+02   2.5484839e+03   1.0930300e+02   5.9853600e+02   3.3900000e-01   
9.2600000e+02   2.9587600e+02   2.5482310e+03   1.0765300e+02   6.0181700e+02   3.4100000e-01   
9.2612500e+02   2.9699800e+02   2.5492791e+03   1.0541800e+02   6.0356200e+02   3.4000000e-01   
9.2625000e+02   2.9762400e+02   2.5495071e+03   1.0423600e+02   6.0520300e+02   3.4100000e-01   
9.2637500e+02   2.9773300e+02   2.5481140e+03   1.0480600e+02   6.0684300e+02   3.4100000e-01   
9.2650000e+02   2.9773300e+02   2.5462500e+03   1.0630600e+02   6.0694800e+02   3.4200000e-01   
9.2662500e+02   2.9773300e+02   2.5453411e+03   1.0786500e+02   6.0694800e+02   3.4200000e-01   
9.2675000e+02   2.9773300e+02   2.5459080e+03   1.0952700e+02   6.0848300e+02   3.4300000e-01   
9.2687500e+02   2.9863800e+02   2.5467539e+03   1.1118700e+02   6.1012400e+02   3.4200000e-01   
9.2700000e+02   3.0017000e+02   2.5471360e+03   1.1307700e+02   6.1329900e+02   3.4200000e-01   
9.2712500e+02   3.0241400e+02   2.5475010e+03   1.1537500e+02   6.1811500e+02   3.4300000e-01   
9.2725000e+02   3.0517700e+02   2.5471470e+03   1.1800400e+02   6.2303700e+02   3.4200000e-01   
9.2737500e+02   3.0774600e+02   2.5452710e+03   1.2084200e+02   6.2795800e+02   3.4200000e-01   
9.2750000e+02   3.0960200e+02   2.5430229e+03   1.2271400e+02   6.3287900e+02   3.4300000e-01   
9.2762500e+02   3.1094100e+02   2.5413411e+03   1.2272700e+02   6.3626500e+02   3.4300000e-01   
9.2775000e+02   3.1096400e+02   2.5400930e+03   1.2090900e+02   6.3801100e+02   3.4400000e-01   
9.2787500e+02   3.1025200e+02   2.5383210e+03   1.1814700e+02   6.3965100e+02   3.4600000e-01   
9.2800000e+02   3.0913000e+02   2.5344170e+03   1.1605300e+02   6.3822100e+02   3.4700000e-01   
9.2812500e+02   3.0759800e+02   2.5293230e+03   1.1546200e+02   6.3658000e+02   3.4800000e-01   
9.2825000e+02   3.0625900e+02   2.5260801e+03   1.1528400e+02   6.3647500e+02   3.4900000e-01   
9.2837500e+02   3.0593500e+02   2.5263259e+03   1.1501700e+02   6.3647500e+02   3.5000000e-01   
9.2850000e+02   3.0593500e+02   2.5290100e+03   1.1474900e+02   6.3647500e+02   3.5000000e-01   
9.2862500e+02   3.0623600e+02   2.5314419e+03   1.1467600e+02   6.3801100e+02   3.5000000e-01   
9.2875000e+02   3.0694800e+02   2.5317129e+03   1.1528100e+02   6.3965100e+02   3.5000000e-01   
9.2887500e+02   3.0686300e+02   2.5305039e+03   1.1605600e+02   6.3822100e+02   3.5000000e-01   
9.2900000e+02   3.0584900e+02   2.5294070e+03   1.1665700e+02   6.3504500e+02   3.4900000e-01   
9.2912500e+02   3.0401500e+02   2.5292129e+03   1.1699100e+02   6.3176400e+02   3.4900000e-01   
9.2925000e+02   3.0136100e+02   2.5295659e+03   1.1718100e+02   6.2541300e+02   3.4900000e-01   
9.2937500e+02   2.9818900e+02   2.5297781e+03   1.1727700e+02   6.1731600e+02   3.4800000e-01   
9.2950000e+02   2.9490800e+02   2.5300291e+03   1.1731200e+02   6.0757900e+02   3.4600000e-01   
9.2962500e+02   2.9132500e+02   2.5312361e+03   1.1731700e+02   5.9773600e+02   3.4400000e-01   
9.2975000e+02   2.8793600e+02   2.5347119e+03   1.1716100e+02   5.8482300e+02   3.4000000e-01   
9.2987500e+02   2.8495700e+02   2.5408840e+03   1.1601300e+02   5.7323600e+02   3.3600000e-01   
9.3000000e+02   2.8208700e+02   2.5476621e+03   1.1368600e+02   5.6175300e+02   3.3100000e-01   
9.3012500e+02   2.7982000e+02   2.5529341e+03   1.1085800e+02   5.5334000e+02   3.2800000e-01   
9.3025000e+02   2.7837300e+02   2.5571379e+03   1.0848500e+02   5.4667400e+02   3.2500000e-01   
9.3037500e+02   2.7774600e+02   2.5607500e+03   1.0780500e+02   5.4471800e+02   3.2400000e-01   
9.3050000e+02   2.7884500e+02   2.5623640e+03   1.0848700e+02   5.4768300e+02   3.2500000e-01   
9.3062500e+02   2.8139100e+02   2.5604590e+03   1.0929300e+02   5.5557000e+02   3.2700000e-01   
9.3075000e+02   2.8426200e+02   2.5552561e+03   1.0970100e+02   5.6377200e+02   3.3000000e-01   
9.3087500e+02   2.8683000e+02   2.5494390e+03   1.1005300e+02   5.7043900e+02   3.3100000e-01   
9.3100000e+02   2.8868700e+02   2.5468010e+03   1.0994100e+02   5.7239500e+02   3.2900000e-01   
9.3112500e+02   2.8791300e+02   2.5476250e+03   1.0851100e+02   5.6789400e+02   3.2700000e-01   
9.3125000e+02   2.8355600e+02   2.5474600e+03   1.0448000e+02   5.5683200e+02   3.2500000e-01   
9.3137500e+02   2.7671600e+02   2.5431069e+03   9.7775000e+01   5.4074300e+02   3.2300000e-01   
9.3150000e+02   2.6933400e+02   2.5352029e+03   9.0379000e+01   5.2433900e+02   3.2100000e-01   
9.3162500e+02   2.6255600e+02   2.5265100e+03   8.4831000e+01   5.1100500e+02   3.2100000e-01   
9.3175000e+02   2.5810700e+02   2.5195110e+03   8.1774000e+01   5.0095300e+02   3.1900000e-01   
9.3187500e+02   2.5683100e+02   2.5155801e+03   8.1112000e+01   4.9418100e+02   3.1500000e-01   
9.3200000e+02   2.5853400e+02   2.5137939e+03   8.2308000e+01   4.9376000e+02   3.1100000e-01   
9.3212500e+02   2.6190000e+02   2.5136990e+03   8.4535000e+01   4.9683100e+02   3.0800000e-01   
9.3225000e+02   2.6498700e+02   2.5148921e+03   8.7618000e+01   5.0011200e+02   3.0500000e-01   
9.3237500e+02   2.6725400e+02   2.5162791e+03   9.0227000e+01   5.0339300e+02   3.0400000e-01   
9.3250000e+02   2.6870100e+02   2.5173030e+03   9.1208000e+01   5.0667300e+02   3.0400000e-01   
9.3262500e+02   2.6872400e+02   2.5174570e+03   9.1424000e+01   5.0841900e+02   3.0600000e-01   
9.3275000e+02   2.6771000e+02   2.5166980e+03   9.0914000e+01   5.0698900e+02   3.0700000e-01   
9.3287500e+02   2.6678200e+02   2.5153640e+03   8.8736000e+01   5.0534800e+02   3.0700000e-01   
9.3300000e+02   2.6566000e+02   2.5129290e+03   8.5826000e+01   5.0370800e+02   3.0700000e-01   
9.3312500e+02   2.6473100e+02   2.5090811e+03   8.3611000e+01   5.0206800e+02   3.0700000e-01   
9.3325000e+02   2.6481600e+02   2.5049851e+03   8.3197000e+01   5.0196200e+02   3.0700000e-01   
9.3337500e+02   2.6583000e+02   2.5015759e+03   8.5044000e+01   5.0503300e+02   3.0800000e-01   
9.3350000e+02   2.6796600e+02   2.4986960e+03   8.7667000e+01   5.0831400e+02   3.0800000e-01   
9.3362500e+02   2.7072800e+02   2.4962219e+03   8.9439000e+01   5.1313000e+02   3.0700000e-01   
9.3375000e+02   2.7329700e+02   2.4948250e+03   9.0086000e+01   5.1805100e+02   3.0700000e-01   
9.3387500e+02   2.7545600e+02   2.4954829e+03   9.0096000e+01   5.1990200e+02   3.0500000e-01   
9.3400000e+02   2.7660100e+02   2.4981360e+03   8.9712000e+01   5.2000700e+02   3.0300000e-01   
9.3412500e+02   2.7651600e+02   2.5005811e+03   8.8297000e+01   5.1847200e+02   3.0100000e-01   
